[{"name":"Nebenrettungswache Brühl Innenstadt","stadt":"Brühl","stadtteil":"","strasse":"Mühlenstraße 21-25","plz":"50321","reb":"03-02","neb":"03","keb":"","kurz":"RW Brühl Innenstadt","beschrift":"","lon":6.899666369301582,"lat":50.82735009167492,"geplant":false},{"name":"Nebenrettungswache Erftstadt-Lechenich","stadt":"Erftstadt","stadtteil":"Lechenich","strasse":"Siemensstraße 25","plz":"50374","reb":"05-02","neb":"","keb":"","kurz":"RW Erftstadt-Lechenich","beschrift":"","lon":6.777540897305931,"lat":50.7933201017523,"geplant":false},{"name":"Nebenrettungswache Pulheim-Sinnersdorf","stadt":"Pulheim","stadtteil":"Sinnersdorf","strasse":"Stommelner Straße 145","plz":"50259","reb":"09-02","neb":"","keb":"","kurz":"RW Pulheim-Sinnersdorf","beschrift":"","lon":6.810981222616802,"lat":51.02352453172223,"geplant":false},{"name":"Nebenrettungswache Bergheim-Niederaußem","stadt":"Bergheim","stadtteil":"Niederaußem","strasse":"Werkstraße 1","plz":"50129","reb":"02-02","neb":"","keb":"","kurz":"RW Bergheim-Niederaußem","beschrift":"","lon":6.673500829042966,"lat":50.99137564378506,"geplant":false},{"name":"Nebenrettungswache Elsdorf-Niederembt","stadt":"Elsdorf","stadtteil":"Niederembt","strasse":"Mühlenstraße 11b","plz":"50189","reb":"04-01","neb":"","keb":"","kurz":"RW Elsdorf-Niederembt","beschrift":"","lon":6.538287251589054,"lat":50.96162917044461,"geplant":false},{"name":"Nebenrettungswache Frechen-Königsdorf","stadt":"Frechen","stadtteil":"Königsdorf","strasse":"Zur Mühle 2-4","plz":"50226","reb":"06-02","neb":"","keb":"","kurz":"RW Frechen-Königsdorf","beschrift":"","lon":6.782707476099852,"lat":50.93682116004669,"geplant":false},{"name":"Nebenrettungswache Hürth-Gleuel","stadt":"Hürth","stadtteil":"Gleuel","strasse":"Kölner Straße 126","plz":"50354","reb":"07-02","neb":"","keb":"","kurz":"RW Hürth-Gleuel","beschrift":"","lon":6.843722869632917,"lat":50.89653444272587,"geplant":false},{"name":"Nebenrettungswache Kerpen-Blatzheim","stadt":"Kerpen","stadtteil":"Blatzheim","strasse":"Bergstraße 8","plz":"50171","reb":"08-02","neb":"","keb":"","kurz":"RW Kerpen-Blatzheim","beschrift":"","lon":6.633201581702196,"lat":50.85492396288013,"geplant":false},{"name":"Feuer- und Rettungswache Bergheim","stadt":"Bergheim","stadtteil":"","strasse":"Kölner Straße 155","plz":"50127","reb":"02-01","neb":"02","keb":"02","kurz":"FRW Bergheim","beschrift":"","lon":6.660479574673698,"lat":50.948883063500254,"geplant":false},{"name":"Feuer- und Rettungswache Brühl","stadt":"Brühl","stadtteil":"","strasse":"Rheinstraße 207","plz":"50321","reb":"03-01","neb":"","keb":"","kurz":"FRW Brühl","beschrift":"","lon":6.9272466520677956,"lat":50.83017190728597,"geplant":false},{"name":"Feuer- und Rettungswache Erftstadt","stadt":"Erftstadt","stadtteil":"","strasse":"Gustav-Heinemann-Straße 1","plz":"50374","reb":"05-01","neb":"05","keb":"05","kurz":"FRW Erftstadt","beschrift":"","lon":6.816623282356967,"lat":50.80190724861609,"geplant":false},{"name":"Feuer- und Rettungswache Frechen","stadt":"Frechen","stadtteil":"","strasse":"Lindenstraße 112","plz":"50226","reb":"06-01","neb":"06","keb":"06","kurz":"FRW Frechen","beschrift":"","lon":6.805271490377009,"lat":50.920025214677786,"geplant":false},{"name":"Feuer- und Rettungswache Hürth","stadt":"Hürth","stadtteil":"","strasse":"Luxemburger Straße 450","plz":"50354","reb":"07-01","neb":"07","keb":"","kurz":"FRW Hürth","beschrift":"","lon":6.883351385377431,"lat":50.87442501793787,"geplant":false},{"name":"Feuer- und Rettungswache Kerpen","stadt":"Kerpen","stadtteil":"","strasse":"Sindorfer Straße 26","plz":"50171","reb":"08-01","neb":"08","keb":"","kurz":"FRW Kerpen","beschrift":"","lon":6.695256011707884,"lat":50.88029718742676,"geplant":false},{"name":"Feuer- und Rettungswache Pulheim","stadt":"Pulheim","stadtteil":"","strasse":"Zum Schwefelberg 2","plz":"50259","reb":"09-01","neb":"09","keb":"","kurz":"FRW Pulheim","beschrift":"","lon":6.81254695921412,"lat":50.98821013292453,"geplant":false},{"name":"Feuer- und Rettungswache Wesseling","stadt":"Wesseling","stadtteil":"","strasse":"Kronenweg 49","plz":"50389","reb":"10-01","neb":"10","keb":"10","kurz":"FRW Wesseling","beschrift":"","lon":6.984899329598085,"lat":50.81570570078508,"geplant":false},{"name":"Nebenrettungswache Bedburg","stadt":"Bedburg","stadtteil":"","strasse":"Klosterstraße 10","plz":"50181","reb":"01-01","neb":"01","keb":"","kurz":"RW Bedburg","beschrift":"","lon":6.577661295842428,"lat":50.99808990099234,"geplant":false},{"name":"Nebenrettungswache Kerpen-Brüggen","stadt":"Kerpen","stadtteil":"Brüggen","strasse":"Heerstraße 367","plz":"50169","reb":"08-03","neb":"","keb":"","kurz":"RW Kerpen-Brüggen","beschrift":"","lon":6.772133644970167,"lat":50.85065924723671,"geplant":false},{"name":"Nebenrettungswache Bedburg-Kirchherten","stadt":"Bedburg","stadtteil":"Kirchherten","strasse":"Am Bahndamm 5","plz":"50181","reb":"01-02","neb":"","keb":"","kurz":"RW Bedburg-Kirchherten","beschrift":"","lon":6.4853298657267775,"lat":51.0005212788835,"geplant":false},{"name":"Nebenrettungswache KH Bergheim","stadt":"Bergheim","stadtteil":"","strasse":"Klosterstraße 2","plz":"50126","reb":"02-01","neb":"02","keb":"","kurz":"RW KH Bergheim","beschrift":"","lon":6.637785826851727,"lat":50.95245435014255,"geplant":false},{"name":"Nebenrettungswache KH Hürth","stadt":"Hürth","stadtteil":"","strasse":"Rosellstraße 41","plz":"50354","reb":"","neb":"07","keb":"","kurz":"RW KH Hürth","beschrift":"","lon":6.887524636250371,"lat":50.88425579321443,"geplant":false},{"name":"Nebenrettungswache Erftstadt-Friesheim","stadt":"Erftstadt","stadtteil":"Friesheim","strasse":"Wildweg 20","plz":"50374","reb":"05-03","neb":"","keb":"","kurz":"RW Erftstadt-Friesheim","beschrift":"In Planung RW Friesheim für neuen REB 05-03","lon":6.7737801415895555,"lat":50.74967351840531,"geplant":true},{"name":"Nebenrettungswache Kerpen-Götzenkirchen","stadt":"Kerpen","stadtteil":"Götzenkirchen","strasse":"Wallraffstrasse Ecke An-der-alten-Kreisbahn","plz":"50169","reb":"08-04","neb":"","keb":"","kurz":"RW Kerpen-Götzenkirchen","beschrift":"In Planung RW Götzenkirchen für neuen REB 08-04","lon":6.7167137615356145,"lat":50.902852390729954,"geplant":true},{"name":"Nebenrettungswache Elsdorf-Berrendorf","stadt":"Elsdorf","stadtteil":"Berrendorf","strasse":"Zum Sportplatz 111","plz":"50189","reb":"04-02","neb":"","keb":"","kurz":"RW Elsdorf-Berrendorf","beschrift":"In Planung RW Berrendorf für neuen REB 04-02","lon":6.58794643809395,"lat":50.917408193326544,"geplant":true},{"name":"Möglicher Interimsstandort NRW Friesheim","stadt":"Erftstadt","stadtteil":"","strasse":"","plz":"","reb":"","neb":"","keb":"","kurz":"Interim RW Friesheim","beschrift":"Möglicher Interimsstandort RW Friesheim","lon":6.7792696480024075,"lat":50.76018206028102,"geplant":true},{"name":"Möglicher Interimsstandort FRW Lechenich","stadt":"Erftstadt","stadtteil":"","strasse":"","plz":"","reb":"","neb":"","keb":"","kurz":"Interim FRW Lechenich","beschrift":"Möglicher Interimsstandort FRW Lechenenich","lon":6.786406187617353,"lat":50.79546133531591,"geplant":true},{"name":"Möglicher Interimsstandort RW Köttingen","stadt":"Erftstadt","stadtteil":"","strasse":"","plz":"","reb":"","neb":"","keb":"","kurz":"Interim RW Köttingen","beschrift":"Möglicher Interimsstandort RW Köttingen","lon":6.819818868644827,"lat":50.817831496912135,"geplant":true},{"name":"Interimswache Gefahrenabwehrzentrum REK","stadt":"Kerpen","stadtteil":"Sindorf","strasse":"Visteonstraße 4-10","plz":"50170","reb":"","neb":"","keb":"","kurz":"Interim GAZ REK","beschrift":"In Planung Interimsstandort GAZ REK","lon":6.675888068534702,"lat":50.89422811243998,"geplant":true},{"name":"Neubau FRW Wesseling","stadt":"Wesseling","stadtteil":"","strasse":"Hubertusstraße","plz":"","reb":"","neb":"","keb":"","kurz":"FRW Wesseling (Neubau)","beschrift":"In Planung Neubau FRW Wesseling","lon":6.966836014349762,"lat":50.827692300732714,"geplant":true},{"name":"Neubau FRW Brühl","stadt":"Brühl","stadtteil":"","strasse":"Römerstraße","plz":"","reb":"","neb":"","keb":"","kurz":"FRW Brühl (Neubau)","beschrift":"Im Bau Neubau FRW Brühl","lon":6.893203329273169,"lat":50.82316844211988,"geplant":true},{"name":"Standortoption Neubau RW Bedburg","stadt":"Bedburg","stadtteil":"","strasse":"","plz":"","reb":"","neb":"","keb":"","kurz":"RW Bedburg (Neubau)","beschrift":"Standortoption Neubau RW Bedburg","lon":6.550521965265803,"lat":50.993959679827114,"geplant":true}]