[{"id":"001","kat":"Krankenhaus","info":"Regelversorgung","stadt":"Bedburg","name":"Krankenhaus St. Hubertus-Stift","strasse":"Klosterstraße 21a","plz":"50181","ort":"Bedburg","tel":"02272-4040","web":"www.st-hubertusstift.de","plaetze":"","hinweis":"Intensiv, Chirurgie, Innere","lat":50.9983,"lon":6.576305},{"id":"002","kat":"Krankenhaus","info":"Regelversorgung","stadt":"Bergheim","name":"Cellitinnen-Krankenhaus Maria-Hilf","strasse":"Klosterstraße 2","plz":"50126","ort":"Bergheim","tel":"02271-870","web":"www.maria-hilf-krankenhaus.de","plaetze":"182 Betten","hinweis":"Intensiv, Geburtsstation, NEF-Standort","lat":50.952468,"lon":6.637768},{"id":"003","kat":"Krankenhaus","info":"Regelversorgung","stadt":"Brühl","name":"GFO Klinik Brühl – Marienhospital","strasse":"Mühlenstraße 21-25","plz":"50321","ort":"Brühl","tel":"02232-740","web":"klinik-bruehl.gfo-online.de","plaetze":"","hinweis":"Intensiv, Geburtsstation, Geriatrie","lat":50.827352,"lon":6.900655},{"id":"004","kat":"Krankenhaus","info":"Regelversorgung","stadt":"Erftstadt","name":"Marien-Hospital Erftstadt-Frauenthal","strasse":"Münchweg 3","plz":"50374","ort":"Erftstadt","tel":"02235-4040","web":"www.marienerft.de","plaetze":"","hinweis":"Geriatrie, Innere, Chirurgie","lat":50.807573,"lon":6.809041},{"id":"005","kat":"Krankenhaus","info":"Regelversorgung","stadt":"Frechen","name":"St. Katharinen-Hospital Frechen","strasse":"Kapellenstraße 1-5","plz":"50226","ort":"Frechen","tel":"02234-5020","web":"www.st-katharinen-hospital.de","plaetze":"","hinweis":"Intensiv, Palliativstation","lat":50.922231,"lon":6.808199},{"id":"006","kat":"Krankenhaus","info":"Regelversorgung","stadt":"Hürth","name":"Sana-Krankenhaus Hürth","strasse":"Krankenhausstraße 42","plz":"50354","ort":"Hürth","tel":"02233-594-0","web":"www.sana.de/huerth","plaetze":"","hinweis":"Intensiv, Chirurgie, Innere","lat":50.884035,"lon":6.886704},{"id":"007","kat":"Krankenhaus","info":"Regelversorgung","stadt":"Wesseling","name":"Dreifaltigkeits-Krankenhaus Wesseling","strasse":"Bonner Straße 84","plz":"50389","ort":"Wesseling","tel":"02236-770","web":"www.krankenhaus-wesseling.de","plaetze":"","hinweis":"Intensiv, Palliativstation, Chirurgie","lat":50.821773,"lon":6.985377},{"id":"008","kat":"Krankenhaus","info":"Psychiatrie Tagesklinik","stadt":"Hürth","name":"Cellitinnen-Marienborn Tagesklinik Psychiatrie","strasse":"Argeles-Sur-Mer-Straße 1","plz":"50354","ort":"Hürth","tel":"02233-5994-0","web":"www.marienborn-psychiatrie.de","plaetze":"","hinweis":"Psychiatrische Tagesklinik","lat":50.884544,"lon":6.870373},{"id":"101","kat":"Pflegeheim","info":"Vollstationär","stadt":"Bedburg","name":"AWO Seniorenzentrum Bedburg","strasse":"Eifelstraße 9","plz":"50181","ort":"Bedburg","tel":"02272-9020","web":"www.pflege-rheinerft.de","plaetze":"","hinweis":"Vollstationär, Kurzzeitpflege","lat":50.99198,"lon":6.56377},{"id":"102","kat":"Pflegeheim","info":"Vollstationär","stadt":"Bedburg","name":"Caritas-Seniorenzentrum Stiftung Hambloch","strasse":"Mathias-Lammet-Str. 1","plz":"50181","ort":"Bedburg","tel":"02272-40440","web":"www.caritas-rhein-erft.de","plaetze":"","hinweis":"Vollstationär","lat":51.014471,"lon":6.556953},{"id":"103","kat":"Pflegeheim","info":"Vollstationär","stadt":"Bedburg","name":"DRK-Seniorenheim Bedburg","strasse":"St.-Rochus-Str. 11","plz":"50181","ort":"Bedburg","tel":"02272-9220","web":"www.drk-rhein-erft.de","plaetze":"","hinweis":"Vollstationär","lat":51.005776,"lon":6.549569},{"id":"104","kat":"Pflegeheim","info":"Vollstationär","stadt":"Bergheim","name":"DRK Alten- und Pflegeheim Bergheim","strasse":"Zeppelinstraße 25","plz":"50126","ort":"Bergheim","tel":"02271-6060","web":"drk-rhein-erft.de","plaetze":"","hinweis":"5 Kurzzeitpflegeplätze","lat":50.951225,"lon":6.646508},{"id":"105","kat":"Pflegeheim","info":"Vollstationär","stadt":"Bergheim","name":"Haus Sandberg","strasse":"Sandberg 6-12","plz":"50129","ort":"Bergheim","tel":"02271-8375-0","web":"www.haus-sandberg.de","plaetze":"116","hinweis":"Privat, Langzeit- und Kurzzeitpflege","lat":50.975219,"lon":6.684415},{"id":"106","kat":"Pflegeheim","info":"Vollstationär","stadt":"Bergheim","name":"AWO Seniorenzentrum Quadrath-Ichendorf","strasse":"Auf der Helle 38","plz":"50127","ort":"Bergheim","tel":"02271-7930","web":"www.pflege-rheinerft.de","plaetze":"","hinweis":"Vollstationär, Tagespflege","lat":50.933448,"lon":6.683242},{"id":"107","kat":"Pflegeheim","info":"Vollstationär","stadt":"Bergheim","name":"APK Soziale Dienste GmbH Bergheim","strasse":"Fischbachstraße 32","plz":"50127","ort":"Bergheim","tel":"02271-47650","web":"","plaetze":"","hinweis":"Vollstationär","lat":50.934352,"lon":6.697724},{"id":"108","kat":"Pflegeheim","info":"Vollstationär","stadt":"Brühl","name":"Altenheim Kölnstraße Brühl","strasse":"Kölnstraße 74-84","plz":"50321","ort":"Brühl","tel":"02232-7000","web":"","plaetze":"","hinweis":"Vollstationär","lat":50.832354,"lon":6.90665},{"id":"109","kat":"Pflegeheim","info":"Vollstationär","stadt":"Elsdorf","name":"Caritas-Seniorenzentrum St. Martinus Niederembt","strasse":"Niederembt (Dorfplatz)","plz":"50189","ort":"Elsdorf","tel":"02274-9320","web":"www.caritas-rhein-erft.de","plaetze":"84","hinweis":"Vollstationär, 68 Einzel- 8 Doppelzimmer","lat":50.934191,"lon":6.562886},{"id":"110","kat":"Pflegeheim","info":"Vollstationär","stadt":"Elsdorf","name":"Pflegeheim Hochstraße Elsdorf","strasse":"Hochstraße 1","plz":"50189","ort":"Elsdorf","tel":"02274-9390","web":"","plaetze":"","hinweis":"Vollstationär","lat":50.96464,"lon":6.540988},{"id":"111","kat":"Pflegeheim","info":"Vollstationär","stadt":"Elsdorf","name":"Pflegeheim Zum Ostbahnhof","strasse":"Zum Ostbahnhof 1","plz":"50189","ort":"Elsdorf","tel":"02274-9380","web":"","plaetze":"","hinweis":"Vollstationär, Kurzzeitpflege","lat":50.933817,"lon":6.569019},{"id":"112","kat":"Pflegeheim","info":"Vollstationär","stadt":"Elsdorf","name":"Pflegeheim Eulengasse","strasse":"Eulengasse 23","plz":"50189","ort":"Elsdorf","tel":"02274-9370","web":"","plaetze":"","hinweis":"Vollstationär, Kurzzeitpflege","lat":50.913395,"lon":6.642361},{"id":"113","kat":"Pflegeheim","info":"Vollstationär","stadt":"Erftstadt","name":"Stella Vitalis Seniorenzentrum Erftstadt","strasse":"Seestraße 28","plz":"50374","ort":"Erftstadt","tel":"02235-470","web":"www.stellavitalis.de","plaetze":"51","hinweis":"Vollstationär","lat":50.819681,"lon":6.818829},{"id":"114","kat":"Pflegeheim","info":"Vollstationär","stadt":"Frechen","name":"Altenheim Franzstraße Frechen","strasse":"Franzstraße 7-9","plz":"50226","ort":"Frechen","tel":"02234-240687","web":"","plaetze":"","hinweis":"Vollstationär","lat":50.907699,"lon":6.800959},{"id":"115","kat":"Pflegeheim","info":"Vollstationär","stadt":"Frechen","name":"Pflegeheim Arnikastraße Frechen","strasse":"Arnikastraße 4","plz":"50226","ort":"Frechen","tel":"02234-9380","web":"","plaetze":"","hinweis":"Vollstationär, Betreutes Wohnen","lat":50.921061,"lon":6.8084},{"id":"116","kat":"Pflegeheim","info":"Vollstationär","stadt":"Frechen","name":"Pflegeheim Dechant-Hansen-Allee","strasse":"Dechant-Hansen-Allee 16","plz":"50226","ort":"Frechen","tel":"02234-657646","web":"","plaetze":"","hinweis":"Vollstationär","lat":50.939376,"lon":6.765381},{"id":"117","kat":"Pflegeheim","info":"Vollstationär","stadt":"Frechen","name":"Pflegeheim Keimestraße","strasse":"Keimestraße 4","plz":"50226","ort":"Frechen","tel":"02234-9382","web":"","plaetze":"","hinweis":"Vollstationär, Betreutes Wohnen","lat":50.913008,"lon":6.793384},{"id":"118","kat":"Pflegeheim","info":"Vollstationär","stadt":"Frechen","name":"Pflegeheim Augustinusstraße","strasse":"Augustinusstraße 10","plz":"50226","ort":"Frechen","tel":"02234-9385","web":"","plaetze":"","hinweis":"Vollstationär","lat":50.934926,"lon":6.772794},{"id":"119","kat":"Pflegeheim","info":"Vollstationär","stadt":"Hürth","name":"Caritas-Seniorenzentrum Anna-Haus Hermülheim","strasse":"Hermülheimer Str. (Hürth-Hermülheim)","plz":"50354","ort":"Hürth","tel":"02233-79900","web":"www.caritas-rhein-erft.de","plaetze":"","hinweis":"Vollstationär","lat":50.874256,"lon":6.849757},{"id":"120","kat":"Pflegeheim","info":"Vollstationär","stadt":"Hürth","name":"Caritas-Seniorenzentrum Sebastianusstift Gleuel","strasse":"Hürth-Gleuel","plz":"50354","ort":"Hürth","tel":"02233-79901","web":"www.caritas-rhein-erft.de","plaetze":"","hinweis":"Vollstationär, Tagespflege","lat":50.886514,"lon":6.834008},{"id":"121","kat":"Pflegeheim","info":"Vollstationär","stadt":"Hürth","name":"Caritas-Seniorenzentrum St. Ursula Hürth-Mitte","strasse":"Luxemburger Str., Hürth-Mitte","plz":"50354","ort":"Hürth","tel":"02233-79902","web":"www.caritas-rhein-erft.de","plaetze":"","hinweis":"Vollstationär","lat":50.874256,"lon":6.849757},{"id":"122","kat":"Pflegeheim","info":"Vollstationär","stadt":"Hürth","name":"Altenheim Luxemburger Straße Hürth","strasse":"Luxemburger Straße 305","plz":"50354","ort":"Hürth","tel":"02233-97250","web":"","plaetze":"","hinweis":"Vollstationär","lat":50.880499,"lon":6.891195},{"id":"123","kat":"Pflegeheim","info":"Vollstationär","stadt":"Hürth","name":"APK Soziale Dienste Hürth-Hermülheim","strasse":"Bonnstraße 192","plz":"50354","ort":"Hürth-Hermülheim","tel":"02233-700015","web":"","plaetze":"","hinweis":"Vollstationär","lat":50.874934,"lon":6.888774},{"id":"124","kat":"Pflegeheim","info":"Vollstationär","stadt":"Kerpen","name":"Caritas-Seniorenzentrum St. Josef Kerpen-Buir","strasse":"Bahnstraße 12","plz":"50170","ort":"Kerpen-Buir","tel":"02273-5880","web":"www.caritas-rhein-erft.de","plaetze":"","hinweis":"Vollstationär, Einzelzimmer mit Bad","lat":50.862492,"lon":6.577216},{"id":"125","kat":"Pflegeheim","info":"Vollstationär","stadt":"Kerpen","name":"Caritas-Seniorenzentrum St. Ulrich Kerpen-Sindorf","strasse":"Heppendorfer Str. 60-62","plz":"50170","ort":"Kerpen-Sindorf","tel":"02273-9210","web":"www.caritas-rhein-erft.de","plaetze":"80","hinweis":"Vollstationär, Tagespflege, 72 Einzel + 4 DZ","lat":50.911965,"lon":6.668757},{"id":"126","kat":"Pflegeheim","info":"Vollstationär","stadt":"Kerpen","name":"Pflegeheim Rote-Kreuz-Straße Kerpen","strasse":"Rote-Kreuz-Straße 1","plz":"50169","ort":"Kerpen","tel":"02273-65560","web":"","plaetze":"","hinweis":"Vollstationär, Betreutes Wohnen","lat":50.914897,"lon":6.70346},{"id":"127","kat":"Pflegeheim","info":"Vollstationär","stadt":"Kerpen","name":"Pflegeheim Heppendorfer Straße Kerpen","strasse":"Heppendorfer Straße (Kerpen-Sindorf)","plz":"50170","ort":"Kerpen","tel":"02273-9215","web":"","plaetze":"","hinweis":"Vollstationär, Betreutes Wohnen","lat":50.910229,"lon":6.670796},{"id":"128","kat":"Pflegeheim","info":"Vollstationär","stadt":"Kerpen","name":"Altenheim An Burg Mödrath Kerpen","strasse":"An Burg Mödrath 1","plz":"50171","ort":"Kerpen-Mödrath","tel":"02273-65560","web":"","plaetze":"","hinweis":"Vollstationär","lat":50.874054,"lon":6.685782},{"id":"129","kat":"Pflegeheim","info":"Vollstationär","stadt":"Pulheim","name":"Caritas-Seniorenzentrum Pulheim","strasse":"Pulheim (Adresse Kreisamt)","plz":"50259","ort":"Pulheim","tel":"02238-52001","web":"www.caritas-rhein-erft.de","plaetze":"","hinweis":"Vollstationär","lat":51.002297,"lon":6.798525},{"id":"130","kat":"Pflegeheim","info":"Vollstationär","stadt":"Pulheim","name":"Caritas-Seniorenzentrum St. Nikolaus Brauweiler","strasse":"Pulheim-Brauweiler","plz":"50259","ort":"Pulheim-Brauweiler","tel":"02238-52002","web":"www.caritas-rhein-erft.de","plaetze":"","hinweis":"Vollstationär, Tagespflege","lat":50.959718,"lon":6.773972},{"id":"131","kat":"Pflegeheim","info":"Vollstationär","stadt":"Pulheim","name":"Pflegeheim Kaiser-Otto-Straße Pulheim","strasse":"Kaiser-Otto-Straße 39b","plz":"50259","ort":"Pulheim","tel":"02238-9250","web":"","plaetze":"","hinweis":"Vollstationär","lat":50.959825,"lon":6.776859},{"id":"132","kat":"Pflegeheim","info":"Vollstationär","stadt":"Pulheim","name":"Pflegeheim Erfurter Straße Pulheim","strasse":"Erfurter Straße 2-4","plz":"50259","ort":"Pulheim","tel":"02238-9255","web":"","plaetze":"","hinweis":"Vollstationär","lat":50.964787,"lon":6.776116},{"id":"133","kat":"Pflegeheim","info":"Vollstationär","stadt":"Pulheim","name":"Pflegeheim Steinstraße Pulheim","strasse":"Steinstraße 19","plz":"50259","ort":"Pulheim","tel":"02238-9258","web":"","plaetze":"","hinweis":"Vollstationär","lat":50.995521,"lon":6.801273},{"id":"134","kat":"Pflegeheim","info":"Vollstationär","stadt":"Wesseling","name":"Pflegeheim Bahnhofstraße Wesseling","strasse":"Bahnhofstraße 12","plz":"50389","ort":"Wesseling","tel":"02236-99563","web":"","plaetze":"","hinweis":"Vollstationär","lat":50.825547,"lon":6.981645},{"id":"135","kat":"Pflegeheim","info":"Vollstationär","stadt":"Wesseling","name":"Pflegeheim Alfterstraße Keldenich","strasse":"Alfterstraße 2","plz":"50389","ort":"Wesseling-Keldenich","tel":"02236-99564","web":"","plaetze":"","hinweis":"Vollstationär","lat":50.810139,"lon":6.976954},{"id":"201","kat":"Tagespflege","info":"Teilstationär","stadt":"Bergheim","name":"AWO Tagespflege Bergheim","strasse":"Zeppelinstraße 25","plz":"50126","ort":"Bergheim","tel":"02271-450971","web":"www.pflege-rheinerft.de","plaetze":"14","hinweis":"Mo-Fr 8:30-17 Uhr","lat":50.951225,"lon":6.646508},{"id":"202","kat":"Tagespflege","info":"Teilstationär","stadt":"Bergheim","name":"Lazarus Tagespflege Bergheim","strasse":"Bergheim (Lazarus-Einr.)","plz":"50126","ort":"Bergheim","tel":"02271-985796","web":"www.lazarus.de","plaetze":"14","hinweis":"Mo-Fr 8-16 Uhr","lat":50.966581,"lon":6.601577},{"id":"203","kat":"Tagespflege","info":"Teilstationär","stadt":"Erftstadt","name":"Tagespflege Moselstraße Erftstadt (fkpv.de)","strasse":"Moselstraße 26","plz":"50374","ort":"Erftstadt","tel":"02235-469737","web":"www.fkpv.de","plaetze":"15","hinweis":"Mo-Fr 8:30-16:30","lat":50.841035,"lon":6.750721},{"id":"204","kat":"Tagespflege","info":"Teilstationär","stadt":"Erftstadt","name":"Tagespflege Schönes Leben Erftstadt","strasse":"Arnold-v.-Buschfeld-Str. 2","plz":"50374","ort":"Erftstadt","tel":"02235-794631","web":"www.schoenes-leben.org","plaetze":"20","hinweis":"Mo-Fr","lat":50.813726,"lon":6.76817},{"id":"205","kat":"Tagespflege","info":"Teilstationär","stadt":"Erftstadt","name":"Caritas-Tagespflege Erftstadt","strasse":"Erftstadt","plz":"50374","ort":"Erftstadt","tel":"02235-40460","web":"www.caritas-rhein-erft.de","plaetze":"","hinweis":"Caritas-Träger","lat":50.807276,"lon":6.833012},{"id":"206","kat":"Tagespflege","info":"Teilstationär","stadt":"Hürth","name":"St. Elisabeth Tagespflege Hürth","strasse":"Luxemburger Str. 269-271","plz":"50354","ort":"Hürth","tel":"0170-1815552","web":"www.st-elisabeth-pflege.com","plaetze":"22","hinweis":"Mo-Fr","lat":50.860018,"lon":6.87696},{"id":"207","kat":"Tagespflege","info":"Teilstationär","stadt":"Hürth","name":"Caritas-Tagespflege Sebastianusstift Gleuel","strasse":"Hürth-Gleuel","plz":"50354","ort":"Hürth","tel":"02233-79901","web":"www.caritas-rhein-erft.de","plaetze":"","hinweis":"Caritas-Träger","lat":50.886514,"lon":6.834008},{"id":"208","kat":"Tagespflege","info":"Teilstationär","stadt":"Kerpen","name":"St. Elisabeth Tagespflege Kerpen-Horrem","strasse":"Hauptstraße 199a/b","plz":"50169","ort":"Kerpen-Horrem","tel":"02273-991565","web":"www.st-elisabeth-pflege.com","plaetze":"14","hinweis":"Mo-Fr 8-16 Uhr","lat":50.915349,"lon":6.709374},{"id":"209","kat":"Tagespflege","info":"Teilstationär","stadt":"Kerpen","name":"Caritas-Tagespflege St. Ulrich Sindorf","strasse":"Heppendorfer Str. 60-62","plz":"50170","ort":"Kerpen-Sindorf","tel":"02273-9210","web":"www.caritas-rhein-erft.de","plaetze":"","hinweis":"Mo-Fr, auch samstags 1x mtl.","lat":50.911965,"lon":6.668757},{"id":"210","kat":"Tagespflege","info":"Teilstationär","stadt":"Pulheim","name":"Caritas-Tagespflege Ginkgo St. Nikolaus Brauweiler","strasse":"Pulheim-Brauweiler","plz":"50259","ort":"Pulheim","tel":"02238-52002","web":"www.caritas-rhein-erft.de","plaetze":"","hinweis":"Caritas-Träger","lat":50.959718,"lon":6.773972},{"id":"211","kat":"Tagespflege","info":"Teilstationär","stadt":"Wesseling","name":"Tagespflege am Rheinpark (Diakonie Michaelshoven)","strasse":"Bahnhofstraße 12","plz":"50389","ort":"Wesseling","tel":"0221-99563036","web":"www.diakonie-michaelshoven.de","plaetze":"17","hinweis":"Mo-Fr 9-16 Uhr","lat":50.825547,"lon":6.981645},{"id":"301","kat":"Hospiz","info":"Stationär","stadt":"Erftstadt","name":"Stationäres Hospiz Haus Erftaue (Hospiz REK gGmbH)","strasse":"Münchweg 3a","plz":"50374","ort":"Erftstadt-Frauenthal","tel":"02235-404693","web":"www.hospiz-rhein-erft-kreis.de","plaetze":"","hinweis":"Eröffnet 2006, 10 Plätze","lat":50.807557,"lon":6.806788},{"id":"302","kat":"Hospiz","info":"Stationär","stadt":"Frechen","name":"St. Katharinen Hospiz Frechen","strasse":"Kapellenstraße 1-5","plz":"50226","ort":"Frechen","tel":"02234-5020","web":"www.st-katharinen-hospital.de","plaetze":"","hinweis":"Am St. Katharinen-Hospital","lat":50.922231,"lon":6.808199},{"id":"303","kat":"Hospiz","info":"Ambulant","stadt":"Bergheim","name":"Hospiz Bedburg Bergheim Elsdorf e.V.","strasse":"Zeiss-Straße 6","plz":"50126","ort":"Bergheim","tel":"02271-45303","web":"www.hospiz-bedburg-bergheim.de","plaetze":"","hinweis":"Zuständig Bedburg/Bergheim/Elsdorf","lat":50.951271,"lon":6.638407},{"id":"304","kat":"Hospiz","info":"Ambulant","stadt":"Brühl","name":"Hospiz Brühl e.V.","strasse":"Steinweg 27","plz":"50321","ort":"Brühl","tel":"02232-949830","web":"www.hospiz-bruehl.de","plaetze":"","hinweis":"Ambulant","lat":50.828037,"lon":6.902702},{"id":"305","kat":"Hospiz","info":"Ambulant","stadt":"Erftstadt","name":"Hospiz-Verein Erftstadt e.V.","strasse":"Carl-Schurz-Str. 47-51","plz":"50374","ort":"Erftstadt","tel":"02235-404693","web":"hospiz-verein-erftstadt.de","plaetze":"","hinweis":"Ambulant","lat":50.814753,"lon":6.815325},{"id":"306","kat":"Hospiz","info":"Ambulant","stadt":"Frechen","name":"Hospiz in Frechen e.V.","strasse":"Johann-Schmitz-Platz 2","plz":"50226","ort":"Frechen","tel":"02234-922765","web":"www.hospiz-in-frechen.de","plaetze":"","hinweis":"Ambulant","lat":50.908704,"lon":6.809086},{"id":"307","kat":"Hospiz","info":"Ambulant","stadt":"Hürth","name":"Hospiz Hürth e.V.","strasse":"Luxemburger Straße 358","plz":"50354","ort":"Hürth","tel":"02233-9858930","web":"www.hospiz-huerth.de","plaetze":"","hinweis":"Ambulant","lat":50.879003,"lon":6.888819},{"id":"308","kat":"Hospiz","info":"Ambulant","stadt":"Kerpen","name":"Hospiz Stadt Kerpen / Ambulantes Hospiz Kerpen e.V.","strasse":"Kerpen","plz":"50171","ort":"Kerpen","tel":"02273-9210","web":"","plaetze":"","hinweis":"Ambulant, Mo/Mi/Fr 10-12 Uhr","lat":50.8732,"lon":6.705},{"id":"309","kat":"Hospiz","info":"Ambulant","stadt":"Pulheim","name":"Hospiz Pulheim e.V.","strasse":"Hackenbroicher Straße 16","plz":"50259","ort":"Pulheim","tel":"02238-52713","web":"www.hospiz-pulheim.de","plaetze":"","hinweis":"Ambulant, Di 10-12 + Do 15-17","lat":51.001231,"lon":6.798387},{"id":"310","kat":"Hospiz","info":"Ambulant","stadt":"Wesseling","name":"Hospiz-Verein Wesseling e.V.","strasse":"Bonner Straße 84","plz":"50389","ort":"Wesseling","tel":"02236-770","web":"","plaetze":"","hinweis":"Ambulant, Mo+Do 16-18:30 Uhr","lat":50.821773,"lon":6.985377},{"id":"311","kat":"Hospiz","info":"SAPV-Team","stadt":"Brühl","name":"Palliativteam SAPV RheinErft Süd","strasse":"Königstraße 33","plz":"50321","ort":"Brühl","tel":"02232-949922","web":"www.palliativteam-rheinerft.de","plaetze":"","hinweis":"Zuständig Brühl/Erftstadt/Hürth/Wesseling","lat":50.835662,"lon":6.90303},{"id":"312","kat":"Hospiz","info":"SAPV-Team","stadt":"Bergheim","name":"SAPV-Team RheinErft Nord","strasse":"Bergheim","plz":"50126","ort":"Bergheim","tel":"02271-83-0","web":"","plaetze":"","hinweis":"Zuständig Bedburg/Bergheim/Elsdorf/Kerpen/Pulheim","lat":50.96987,"lon":6.631342},{"id":"401","kat":"Heimbeatmung","info":"Beatmungs-WG","stadt":"Kerpen","name":"WG fuer Menschen mit Beatmung (heimbeatmung.com)","strasse":"Nordring 36","plz":"50171","ort":"Kerpen","tel":"0221-97581450","web":"www.heimbeatmung.com","plaetze":"8","hinweis":"Intensivpflege außerklinisch","lat":50.87494,"lon":6.687078},{"id":"402","kat":"Heimbeatmung","info":"Beatmungs-WG","stadt":"Kerpen","name":"WG Vitales Leben fuer Menschen mit Beatmung (365grad.net)","strasse":"Jahnplatz 7c","plz":"50171","ort":"Kerpen","tel":"02191-5921911","web":"www.365grad.net","plaetze":"10","hinweis":"Intensivpflege außerklinisch","lat":50.873356,"lon":6.689904},{"id":"403","kat":"Heimbeatmung","info":"Ambulanter Dienst","stadt":"Frechen","name":"Benjamin Pflege GmbH (Intensivpflege)","strasse":"Frechen","plz":"50226","ort":"Frechen","tel":"02234-9020","web":"intensivpflege-benjamin.de","plaetze":"","hinweis":"Versorgt REK-weit, außerklinische Beatmung","lat":50.93644,"lon":6.777866},{"id":"404","kat":"Heimbeatmung","info":"Ambulanter Dienst","stadt":"REK-weit","name":"GIP GmbH Intensivpflegedienst","strasse":"REK-weit","plz":"","ort":"REK","tel":"030-232585","web":"www.gip-intensivpflege.de","plaetze":"","hinweis":"Bundesweiter Dienst, REK mitversorgt","lat":51.0025,"lon":6.6992},{"id":"501","kat":"Behinderteneinrichtung","info":"Wohnstaette","stadt":"Elsdorf","name":"Lebenshilfe REK – Wohnstaette Elsdorf","strasse":"Desdorfer Straße 10","plz":"50189","ort":"Elsdorf","tel":"02274-4707","web":"www.lebenshilfe-rek.de","plaetze":"20","hinweis":"Geistige/körperliche Behinderung","lat":50.940014,"lon":6.573815},{"id":"502","kat":"Behinderteneinrichtung","info":"Betreutes Wohnen","stadt":"Bergheim","name":"Lebenshilfe REK – Betreutes Wohnen Bergheim","strasse":"Bergheim","plz":"50126","ort":"Bergheim","tel":"02274-4707","web":"www.lebenshilfe-rek.de","plaetze":"","hinweis":"6 Standorte im REK gesamt","lat":50.96987,"lon":6.631342},{"id":"503","kat":"Behinderteneinrichtung","info":"Betreutes Wohnen","stadt":"Frechen","name":"Lebenshilfe REK – Betreutes Wohnen Frechen","strasse":"Frechen","plz":"50226","ort":"Frechen","tel":"02274-4707","web":"www.lebenshilfe-rek.de","plaetze":"","hinweis":"Betreutes Wohnen für Menschen mit Behinderung","lat":50.93644,"lon":6.777866},{"id":"504","kat":"Behinderteneinrichtung","info":"Ambulante WG","stadt":"Kerpen","name":"Amb. betr. WG Menschen mit Behinderung Sindorf","strasse":"Sindorfer Straße 14-16","plz":"50170","ort":"Kerpen-Sindorf","tel":"02273-9215","web":"","plaetze":"","hinweis":"WG für Menschen mit Behinderung","lat":50.88239,"lon":6.69249},{"id":"505","kat":"Behinderteneinrichtung","info":"Ambulante WG","stadt":"Kerpen","name":"Amb. betr. WG Menschen mit Behinderung Kerpen","strasse":"Beisselstraße 9","plz":"50170","ort":"Kerpen","tel":"02273-9218","web":"","plaetze":"","hinweis":"WG für Menschen mit Behinderung","lat":50.900403,"lon":6.716794},{"id":"506","kat":"Behinderteneinrichtung","info":"LVR Beratung","stadt":"Bergheim","name":"KoKoBe Bergheim (LVR)","strasse":"Südweststraße 16","plz":"50126","ort":"Bergheim","tel":"02271-984451","web":"www.kokobe-rhein-erft-kreis.de","plaetze":"","hinweis":"Koordinierung/Kontakt/Beratung Behinderung","lat":50.952877,"lon":6.641099},{"id":"507","kat":"Behinderteneinrichtung","info":"LVR Beratung","stadt":"Brühl","name":"KoKoBe Brühl (LVR)","strasse":"Franziskanerhof 18","plz":"50321","ort":"Brühl","tel":"02232-5799920","web":"www.kokobe-rhein-erft-kreis.de","plaetze":"","hinweis":"Koordinierung/Kontakt/Beratung Behinderung","lat":50.826745,"lon":6.904705},{"id":"508","kat":"Behinderteneinrichtung","info":"LVR Beratung","stadt":"Frechen","name":"KoKoBe Frechen (LVR)","strasse":"Dr.-Tusch-Straße 1-3","plz":"50226","ort":"Frechen","tel":"02234-697213","web":"www.kokobe-rhein-erft-kreis.de","plaetze":"","hinweis":"Koordinierung/Kontakt/Beratung Behinderung","lat":50.909432,"lon":6.806499},{"id":"509","kat":"Behinderteneinrichtung","info":"LVR Beratung","stadt":"Hürth","name":"KoKoBe Hürth (LVR) + IFD","strasse":"Dieselstraße 4","plz":"50354","ort":"Hürth","tel":"02233-201819","web":"www.kokobe-rhein-erft-kreis.de","plaetze":"","hinweis":"KoKoBe + Integrationsfachdienst REK","lat":50.882859,"lon":6.897741},{"id":"510","kat":"Behinderteneinrichtung","info":"Inklusive Kita","stadt":"Frechen","name":"Inklusive Caritas-KiTa St. Barbara Frechen","strasse":"Frechen-Grube Carl","plz":"50226","ort":"Frechen","tel":"02234-9122","web":"www.caritas-rhein-erft.de","plaetze":"","hinweis":"10 Inklusionsplätze","lat":50.909199,"lon":6.80191},{"id":"511","kat":"Behinderteneinrichtung","info":"Inklusive Kita","stadt":"Frechen","name":"Inklusive Caritas-KiTa St. Katharina Königsdorf","strasse":"Frechen-Königsdorf","plz":"50226","ort":"Frechen","tel":"02234-9124","web":"www.caritas-rhein-erft.de","plaetze":"","hinweis":"5 Inklusionsplätze, seit 2011","lat":50.93644,"lon":6.777866},{"id":"512","kat":"Behinderteneinrichtung","info":"Inklusive Kita","stadt":"Hürth","name":"Caritas-KiTa St. Franziskus Hürth (heilpäd. Gruppe)","strasse":"Bussardweg 2","plz":"50354","ort":"Hürth","tel":"02233-7133699","web":"www.caritas-rhein-erft.de","plaetze":"","hinweis":"Heilpädagogische Gruppe","lat":50.886564,"lon":6.895263},{"id":"601","kat":"Obdachlosenunterkunft","info":"Notunterkunft kommunal","stadt":"Brühl","name":"Notunterkunft der Stadt Brühl (SKM-Beratung)","strasse":"Brühl (Adresse SKM)","plz":"50321","ort":"Brühl","tel":"02232-949830","web":"www.skm-rek.de","plaetze":"","hinweis":"SKM-Beratung vor Ort, kommunale Trägerschaft","lat":50.820866,"lon":6.886653},{"id":"602","kat":"Obdachlosenunterkunft","info":"Notunterkunft kommunal","stadt":"Hürth","name":"Obdachlosenunterkünfte Stadt Hürth","strasse":"Hürth (mehrere Standorte)","plz":"50354","ort":"Hürth","tel":"02233-530","web":"www.huerth.de","plaetze":"","hinweis":"Kommunal, 8m² pro Person, zeitlich befristet","lat":50.874256,"lon":6.849757},{"id":"603","kat":"Obdachlosenunterkunft","info":"Notunterkunft kommunal","stadt":"Frechen","name":"Obdachlosenunterkunft Frechen","strasse":"Frechen","plz":"50226","ort":"Frechen","tel":"02234-5010","web":"www.stadt-frechen.de","plaetze":"","hinweis":"Kommunal betrieben","lat":50.93644,"lon":6.777866},{"id":"604","kat":"Obdachlosenunterkunft","info":"Notunterkunft kommunal","stadt":"Kerpen","name":"Obdachlosenunterkunft Kerpen","strasse":"Kerpen","plz":"50171","ort":"Kerpen","tel":"02273-59-0","web":"www.stadt-kerpen.de","plaetze":"","hinweis":"Kommunal, Projekt STARK REK besucht","lat":50.8732,"lon":6.705},{"id":"605","kat":"Obdachlosenunterkunft","info":"Notunterkunft kommunal","stadt":"Elsdorf","name":"Notunterkunft Elsdorf","strasse":"Elsdorf","plz":"50189","ort":"Elsdorf","tel":"02274-9350","web":"","plaetze":"","hinweis":"Projekt STARK REK besucht","lat":50.965335,"lon":6.531971},{"id":"606","kat":"Obdachlosenunterkunft","info":"Notunterkunft kommunal","stadt":"Wesseling","name":"Notunterkunft Wesseling","strasse":"Wesseling","plz":"50389","ort":"Wesseling","tel":"02236-7010","web":"","plaetze":"","hinweis":"Projekt STARK REK besucht","lat":50.813744,"lon":7.010977},{"id":"607","kat":"Obdachlosenunterkunft","info":"Fachberatungsstelle","stadt":"Bergheim","name":"SKM Fachberatungsstelle Bergheim (Bedburg/Bergheim/Elsdorf)","strasse":"Hauptstraße 61","plz":"50126","ort":"Bergheim","tel":"02271-5694777","web":"www.skm-rek.de","plaetze":"","hinweis":"Zuständig Bedburg/Bergheim/Elsdorf","lat":50.953233,"lon":6.638343},{"id":"608","kat":"Obdachlosenunterkunft","info":"Fachberatungsstelle","stadt":"Frechen","name":"SKM Fachberatungsstelle Frechen (Frechen/Hürth/Kerpen/Pulheim)","strasse":"Frechen","plz":"50226","ort":"Frechen","tel":"02234-5694777","web":"www.skm-rek.de","plaetze":"","hinweis":"Zuständig Frechen/Hürth/Kerpen/Pulheim","lat":50.93644,"lon":6.777866},{"id":"609","kat":"Obdachlosenunterkunft","info":"Fachberatungsstelle","stadt":"Wesseling","name":"SKM Fachberatungsstelle Wesseling (Brühl/Erftstadt/Wesseling)","strasse":"Pontivystraße 15","plz":"50389","ort":"Wesseling","tel":"02236-8706835","web":"www.skm-rek.de","plaetze":"","hinweis":"Zuständig Brühl/Erftstadt/Wesseling","lat":50.825338,"lon":6.981031},{"id":"701","kat":"Fluechtlingsunterkunft","info":"Kreisunterkunft","stadt":"Bergheim","name":"Kreisverwaltung REK – Amt Integration + Flüchtlinge","strasse":"Willy-Brandt-Platz 1","plz":"50126","ort":"Bergheim","tel":"02271-83-0","web":"www.rhein-erft-kreis.de","plaetze":"","hinweis":"Koordination Flüchtlingsangelegenheiten","lat":50.951578,"lon":6.631574},{"id":"702","kat":"Fluechtlingsunterkunft","info":"Kommunale Unterkunft","stadt":"Bergheim","name":"Kommunale Flüchtlingsunterkunft Bergheim","strasse":"Bergheim (versch. Standorte)","plz":"50126","ort":"Bergheim","tel":"02271-6890","web":"www.bergheim.de","plaetze":"","hinweis":"Dezentrale kommunale Unterbringung","lat":50.966581,"lon":6.601577},{"id":"703","kat":"Fluechtlingsunterkunft","info":"Kommunale Unterkunft","stadt":"Brühl","name":"Kommunale Flüchtlingsunterkunft Brühl","strasse":"Brühl","plz":"50321","ort":"Brühl","tel":"02232-7970","web":"www.bruehl.de","plaetze":"","hinweis":"Kommunal betrieben","lat":50.829272,"lon":6.912641},{"id":"704","kat":"Fluechtlingsunterkunft","info":"Kommunale Unterkunft","stadt":"Erftstadt","name":"Kommunale Flüchtlingsunterkunft Erftstadt","strasse":"Erftstadt","plz":"50374","ort":"Erftstadt","tel":"02235-4090","web":"www.erftstadt.de","plaetze":"","hinweis":"Kommunal betrieben","lat":50.807276,"lon":6.833012},{"id":"705","kat":"Fluechtlingsunterkunft","info":"Kommunale Unterkunft","stadt":"Frechen","name":"Kommunale Flüchtlingsunterkunft Frechen","strasse":"Frechen","plz":"50226","ort":"Frechen","tel":"02234-5010","web":"www.stadt-frechen.de","plaetze":"","hinweis":"Kommunal betrieben","lat":50.93644,"lon":6.777866},{"id":"706","kat":"Fluechtlingsunterkunft","info":"Kommunale Unterkunft","stadt":"Hürth","name":"Kommunale Flüchtlingsunterkunft Hürth","strasse":"Hürth","plz":"50354","ort":"Hürth","tel":"02233-530","web":"www.huerth.de","plaetze":"","hinweis":"Kommunal betrieben","lat":50.8619,"lon":6.890721},{"id":"707","kat":"Fluechtlingsunterkunft","info":"Kommunale Unterkunft","stadt":"Kerpen","name":"Kommunale Flüchtlingsunterkunft Kerpen","strasse":"Kerpen","plz":"50171","ort":"Kerpen","tel":"02273-59-0","web":"www.stadt-kerpen.de","plaetze":"","hinweis":"Eigene Ausländerbehörde Kerpen","lat":50.8732,"lon":6.705},{"id":"708","kat":"Fluechtlingsunterkunft","info":"Kommunale Unterkunft","stadt":"Pulheim","name":"Kommunale Flüchtlingsunterkunft Pulheim","strasse":"Pulheim","plz":"50259","ort":"Pulheim","tel":"02238-8080","web":"www.pulheim.de","plaetze":"","hinweis":"Kommunal betrieben","lat":50.997928,"lon":6.797157},{"id":"709","kat":"Fluechtlingsunterkunft","info":"Kommunale Unterkunft","stadt":"Wesseling","name":"Kommunale Flüchtlingsunterkunft Wesseling","strasse":"Wesseling","plz":"50389","ort":"Wesseling","tel":"02236-7010","web":"www.wesseling.de","plaetze":"","hinweis":"Kommunal betrieben","lat":50.813744,"lon":7.010977},{"id":"710","kat":"Fluechtlingsunterkunft","info":"Kommunale Unterkunft","stadt":"Bedburg","name":"Kommunale Flüchtlingsunterkunft Bedburg","strasse":"Bedburg","plz":"50181","ort":"Bedburg","tel":"02272-40-0","web":"www.bedburg.de","plaetze":"","hinweis":"Kommunal betrieben","lat":50.987056,"lon":6.572952},{"id":"711","kat":"Fluechtlingsunterkunft","info":"Kommunale Unterkunft","stadt":"Elsdorf","name":"Kommunale Flüchtlingsunterkunft Elsdorf","strasse":"Elsdorf","plz":"50189","ort":"Elsdorf","tel":"02274-9350","web":"www.elsdorf.de","plaetze":"","hinweis":"Projekt STARK REK besucht","lat":50.965335,"lon":6.531971},{"id":"801","kat":"Industrieobjekt","info":"Chemiepark Stoerfall","stadt":"Hürth","name":"Chemiepark Knapsack (YNCORIS) – Stoerfallobjekt §8a BImSchG","strasse":"Industriestraße 300","plz":"50354","ort":"Hürth-Knapsack","tel":"02233-48-0","web":"www.chemiepark-knapsack.de","plaetze":"2500 MA","hinweis":"180 ha, eigene BtF, Pipeline-Verbund Shell Wesseling, BASF/Bayer/CABB/LyondellBasell","lat":50.855134,"lon":6.847058},{"id":"802","kat":"Störfallbetrieb","info":"Raffinerie Stoerfall","stadt":"Wesseling","name":"Shell Energy and Chemicals Park Rheinland – Stoerfallobjekt","strasse":"Ludwigshafener Straße 1","plz":"50389","ort":"Wesseling","tel":"02236-770","web":"www.shell.de/rheinland","plaetze":"3000 MA","hinweis":"Raffinerie + Chemie, Pipeline nach Knapsack, kritische Infra","lat":50.8188,"lon":6.9895},{"id":"803","kat":"Industrieobjekt","info":"Chemie Stoerfall","stadt":"Wesseling","name":"LyondellBasell Wesseling – Stoerfallobjekt","strasse":"Am Rhein 1 (Werksgelände)","plz":"50389","ort":"Wesseling","tel":"02236-770","web":"www.lyondellbasell.com","plaetze":"","hinweis":"Petrochemie, Pipeline-Verbund Knapsack","lat":50.883,"lon":6.839},{"id":"804","kat":"Industrieobjekt","info":"Tagebau Bergbau","stadt":"Bergheim/Elsdorf/Kerpen","name":"RWE Tagebau Hambach","strasse":"Tagebau Hambach (Abbaugebiet)","plz":"50189","ort":"Elsdorf/Kerpen","tel":"02271-65-0","web":"www.rwe.com","plaetze":"","hinweis":"Größter Tagebau Europas, eigene BtF, Löschwasserversorgung kritisch","lat":50.921679,"lon":6.571461},{"id":"805","kat":"Industrieobjekt","info":"Kraftwerk kritische Infra","stadt":"Bergheim","name":"RWE Kraftwerk Niederaußem","strasse":"Karl-Heinz-Beckurts-Str. 8","plz":"50129","ort":"Bergheim-Niederaußem","tel":"02271-65-0","web":"www.rwe.com","plaetze":"","hinweis":"Braunkohlekraftwerk, eigene BtF, kritische Infrastruktur","lat":50.981261,"lon":6.67619},{"id":"806","kat":"Störfallbetrieb","info":"Hafen Gefahrgut","stadt":"Wesseling/Köln-Godorf","name":"Godorfer Hafen (Shell / HGK)","strasse":"Godorfer Hauptstraße 150","plz":"50997","ort":"Köln-Godorf (Grenze Wesseling)","tel":"0221-98290","web":"","plaetze":"","hinweis":"Rheinhafen, Tanklager, Gefahrgutumschlag, Gefahrstoffklassen","lat":50.8714,"lon":6.974},{"id":"901","kat":"Versammlungsstaette","info":"Freizeitpark","stadt":"Brühl","name":"Phantasialand Brühl (mit Betriebsfeuerwehr)","strasse":"Berggeiststraße 31-41","plz":"50321","ort":"Brühl","tel":"02232-36200","web":"www.phantasialand.de","plaetze":"","hinweis":"ca. 2 Mio. Besucher/Jahr, 3 Hotels, eigene BtF, Großobjekt","lat":50.799985,"lon":6.880743},{"id":"902","kat":"Versammlungsstaette","info":"Schlossanlage UNESCO","stadt":"Brühl","name":"Schloss Augustusburg (UNESCO-Weltkulturerbe)","strasse":"Max-Ernst-Allee 1","plz":"50321","ort":"Brühl","tel":"02232-44000","web":"www.schlossbruehl.de","plaetze":"","hinweis":"UNESCO-Welterbe, Großveranstaltungen","lat":50.830216,"lon":6.909568},{"id":"903","kat":"Versammlungsstaette","info":"Schlossanlage UNESCO","stadt":"Brühl","name":"Schloss Falkenlust (UNESCO-Weltkulturerbe)","strasse":"Falkenluststraße","plz":"50321","ort":"Brühl","tel":"02232-44000","web":"www.schlossbruehl.de","plaetze":"","hinweis":"UNESCO-Welterbe","lat":50.820866,"lon":6.886653},{"id":"904","kat":"Versammlungsstaette","info":"Einkaufszentrum","stadt":"Hürth","name":"Hürth Park","strasse":"Theresienhöhe 100","plz":"50354","ort":"Hürth","tel":"02233-92840","web":"www.huerth-park.de","plaetze":"","hinweis":"Großes EKZ, hohe Menschendichte","lat":50.878676,"lon":6.874382},{"id":"905","kat":"Versammlungsstaette","info":"Einkaufszentrum","stadt":"Bergheim","name":"Erft-Center Bergheim","strasse":"Kaiserstraße 30","plz":"50126","ort":"Bergheim","tel":"02271-9820","web":"","plaetze":"","hinweis":"Großes EKZ Stadtmitte Bergheim","lat":51.0018,"lon":6.6432},{"id":"906","kat":"Versammlungsstaette","info":"Veranstaltungshalle","stadt":"Bergheim","name":"Kreishaus Bergheim (Kreisverwaltung REK)","strasse":"Willy-Brandt-Platz 1","plz":"50126","ort":"Bergheim","tel":"02271-83-0","web":"www.rhein-erft-kreis.de","plaetze":"","hinweis":"Verwaltung + Leitstelle REK","lat":50.951578,"lon":6.631574},{"id":"1101","kat":"Schule","info":"Foerderschule","stadt":"Bergheim","name":"Schule Zum Römerturm (geistige Entwicklung)","strasse":"Zum Römerturm 16","plz":"50127","ort":"Bergheim","tel":"02271-9848","web":"","plaetze":"","hinweis":"Kreisschule, geistige Entwicklung","lat":50.938717,"lon":6.633091},{"id":"1102","kat":"Schule","info":"Foerderschule","stadt":"Brühl","name":"Pestalozzischule Brühl (Lernen/Sprache/em.-soz. Entw.)","strasse":"Kölnstraße 85","plz":"50321","ort":"Brühl","tel":"02232-4580","web":"","plaetze":"","hinweis":"Städtische Förderschule","lat":50.833131,"lon":6.905503},{"id":"1103","kat":"Schule","info":"Foerderschule","stadt":"Brühl","name":"Maria-Montessori-Schule Brühl (geistige Entwicklung)","strasse":"Bergstraße 58","plz":"50321","ort":"Brühl","tel":"02232-4582","web":"","plaetze":"","hinweis":"Kreisschule","lat":50.836143,"lon":6.872162},{"id":"1104","kat":"Schule","info":"Foerderschule","stadt":"Elsdorf","name":"Förderschule Elsdorf","strasse":"Desdorfer Straße 2-8","plz":"50189","ort":"Elsdorf","tel":"02274-9360","web":"","plaetze":"","hinweis":"Kreisschule","lat":50.946885,"lon":6.584812},{"id":"1105","kat":"Schule","info":"Foerderschule","stadt":"Elsdorf","name":"Förderschule Heppendorfer Straße Elsdorf","strasse":"Heppendorfer Straße 17-19","plz":"50189","ort":"Elsdorf","tel":"02274-9365","web":"","plaetze":"","hinweis":"Kreisschule","lat":50.923919,"lon":6.613006},{"id":"1201","kat":"Psychiatrie","info":"Fachklinik stationaer","stadt":"Hürth","name":"Cellitinnen-Marienborn Tagesklinik Psychiatrie Hürth","strasse":"Argeles-Sur-Mer-Straße 1","plz":"50354","ort":"Hürth","tel":"02233-5994-0","web":"www.marienborn-psychiatrie.de","plaetze":"","hinweis":"Psychiatrische Tagesklinik","lat":50.884544,"lon":6.870373},{"id":"405","kat":"Heimbeatmung","info":"Beatmungs-WG","stadt":"Hürth","name":"Linimed NRW – Intensivpflege-WG Hürth (Kirschblüten-Carré)","strasse":"Kölnstraße 74","plz":"50354","ort":"Hürth","tel":"0211-15921400","web":"www.linimed-nrw.de","plaetze":"","hinweis":"Außerklinische 24h Intensivpflege, Neubau EG","lat":50.878033,"lon":6.890784},{"id":"406","kat":"Heimbeatmung","info":"Beatmungs-WG","stadt":"Bergheim","name":"Air Vital / Intensivpflege-WG Bergheim","strasse":"Bergheim","plz":"50126","ort":"Bergheim","tel":"02271-9020","web":"","plaetze":"","hinweis":"Außerklinische Intensivpflege REK-weit","lat":50.96987,"lon":6.631342},{"id":"407","kat":"Heimbeatmung","info":"Beatmungs-WG","stadt":"Frechen","name":"Intensivpflege-WG Frechen (Benjamin Pflege)","strasse":"Frechen","plz":"50226","ort":"Frechen","tel":"02234-9020","web":"intensivpflege-benjamin.de","plaetze":"","hinweis":"Außerklinische Beatmung Erwachsene+Kinder","lat":50.93644,"lon":6.777866},{"id":"1301","kat":"Labor","info":"Medizinisches Zentrallabor","stadt":"Bergheim","name":"Zentrallabor Cellitinnen-KH Maria-Hilf","strasse":"Klosterstraße 2","plz":"50126","ort":"Bergheim","tel":"02271-870","web":"www.maria-hilf-krankenhaus.de","plaetze":"","hinweis":"Krankenhaus-Eigenlabor, 24/7","lat":50.952468,"lon":6.637768},{"id":"1302","kat":"Labor","info":"Medizinisches Zentrallabor","stadt":"Brühl","name":"Zentrallabor GFO Klinik Brühl – Marienhospital","strasse":"Mühlenstraße 21-25","plz":"50321","ort":"Brühl","tel":"02232-740","web":"klinik-bruehl.gfo-online.de","plaetze":"","hinweis":"Krankenhaus-Eigenlabor","lat":50.827352,"lon":6.900655},{"id":"1303","kat":"Labor","info":"Medizinisches Zentrallabor","stadt":"Erftstadt","name":"Zentrallabor Marien-Hospital Erftstadt-Frauenthal","strasse":"Münchweg 3","plz":"50374","ort":"Erftstadt","tel":"02235-4040","web":"www.marienerft.de","plaetze":"","hinweis":"Krankenhaus-Eigenlabor","lat":50.807573,"lon":6.809041},{"id":"1304","kat":"Labor","info":"Medizinisches Zentrallabor","stadt":"Frechen","name":"Zentrallabor St. Katharinen-Hospital Frechen","strasse":"Kapellenstraße 1-5","plz":"50226","ort":"Frechen","tel":"02234-5020","web":"www.st-katharinen-hospital.de","plaetze":"","hinweis":"Krankenhaus-Eigenlabor","lat":50.922231,"lon":6.808199},{"id":"1306","kat":"Labor","info":"Medizinisches Zentrallabor","stadt":"Wesseling","name":"Zentrallabor Dreifaltigkeits-KH Wesseling","strasse":"Bonner Straße 84","plz":"50389","ort":"Wesseling","tel":"02236-770","web":"www.krankenhaus-wesseling.de","plaetze":"","hinweis":"Krankenhaus-Eigenlabor","lat":50.821773,"lon":6.985377},{"id":"1307","kat":"Labor","info":"Umweltlabor/Industrielabor","stadt":"Hürth","name":"Analytisches Labor Chemiepark Knapsack (YNCORIS)","strasse":"Industriestraße 300","plz":"50354","ort":"Hürth-Knapsack","tel":"02233-48-0","web":"www.chemiepark-knapsack.de","plaetze":"","hinweis":"Analytiklabor Chemiepark, 24/7-Betrieb","lat":50.855134,"lon":6.847058},{"id":"1308","kat":"Labor","info":"Umweltlabor/Industrielabor","stadt":"Wesseling","name":"Shell Rheinland Analytiklabor","strasse":"Ludwigshafener Straße 1","plz":"50389","ort":"Wesseling","tel":"02236-770","web":"www.shell.de","plaetze":"","hinweis":"Raffinerie-Eigenlabor, Prozesskontrolle","lat":50.814053,"lon":7.005669},{"id":"1309","kat":"Labor","info":"Erftverband Analyselabor","stadt":"Bergheim","name":"Erftverband Hauptlabor Bergheim","strasse":"Am Erftverband 6","plz":"50126","ort":"Bergheim","tel":"02271-88-0","web":"www.erftverband.de","plaetze":"","hinweis":"Gewässer- und Abwasseranalytik, KRITIS","lat":50.960508,"lon":6.630731},{"id":"1401","kat":"Kino","info":"Multiplexkino","stadt":"Hürth","name":"UCI Kinowelt Hürth Park","strasse":"Theresienhöhe 100","plz":"50354","ort":"Hürth","tel":"02233-92840","web":"www.uci-kinowelt.de","plaetze":"","hinweis":"Großes Multiplex, Hürth Park, Viele Säle, hohe Personendichte","lat":50.878676,"lon":6.874382},{"id":"1402","kat":"Kino","info":"Traditionskino","stadt":"Hürth","name":"Berli-Theater Berrenrath (Kulturbetrieb)","strasse":"Hürth-Berrenrath","plz":"50354","ort":"Hürth","tel":"02233-9430","web":"","plaetze":"","hinweis":"Traditionskino seit 1946, 2 Säle, Kulturobjekt","lat":50.885917,"lon":6.829877},{"id":"1403","kat":"Kino","info":"Traditionskino","stadt":"Hürth","name":"CP Lichtspiele Hürth","strasse":"Hürth","plz":"50354","ort":"Hürth","tel":"02233-9431","web":"","plaetze":"","hinweis":"Kleines Traditionskino","lat":50.8619,"lon":6.890721},{"id":"1404","kat":"Kino","info":"Vereinskino","stadt":"Frechen","name":"Linden-Theater Frechen (Frechen-Film e.V.)","strasse":"Frechen-Innenstadt","plz":"50226","ort":"Frechen","tel":"02234-9130","web":"www.linden-theater.de","plaetze":"","hinweis":"Vereinsbetrieb, Arthaus, 1 Saal","lat":50.913008,"lon":6.793384},{"id":"1405","kat":"Kino","info":"Multiplexkino","stadt":"Kerpen","name":"Cineplex Kerpen / CineStar Kerpen","strasse":"Sindorfer Straße 7-21","plz":"50171","ort":"Kerpen","tel":"02273-9230","web":"","plaetze":"","hinweis":"Großes Kino, Kerpen-Mitte, Viele Säle","lat":50.882385,"lon":6.692533},{"id":"1406","kat":"Kino","info":"Vereinskino","stadt":"Brühl","name":"Zoom Kino Brühl","strasse":"Brühl","plz":"50321","ort":"Brühl","tel":"02232-9440","web":"","plaetze":"","hinweis":"Kleines Programmkino","lat":50.829272,"lon":6.912641},{"id":"1407","kat":"Kino","info":"Traditionskino","stadt":"Hürth","name":"Berli-Theater Berrenrath 2. Saal","strasse":"Berrenrath 58","plz":"50354","ort":"Hürth-Berrenrath","tel":"02233-9430","web":"","plaetze":"","hinweis":"Historisches Kino mit Holzsitzen, 380 Plätze, Kulturobjekt","lat":50.864494,"lon":6.824009},{"id":"1501","kat":"Störfallbetrieb","info":"Gefahrgutlogistik Stoerfall","stadt":"Hürth","name":"ALFRED TALKE GmbH – Hürth-Kalscheuren (Stammsitz)","strasse":"Franz-Tilgner-Straße 11","plz":"50354","ort":"Hürth-Kalscheuren","tel":"02233-59930","web":"www.talke.com","plaetze":"","hinweis":"Weltführender Chemielogistiker, Zwischenlager giftige Stoffe, Störfallbetrieb §9 StörfallV, ISO-Tank-Terminal","lat":50.8808,"lon":6.9196},{"id":"1502","kat":"Störfallbetrieb","info":"Gefahrgutlogistik Stoerfall","stadt":"Hürth","name":"ALFRED TALKE GmbH – Hürth-Knapsack","strasse":"Max-Planck-Straße 20","plz":"50354","ort":"Hürth","tel":"02233-59936","web":"www.talke.com","plaetze":"","hinweis":"Gefahrgutlager, Störfall-Genehmigung Bezreg Köln, giftige Stoffe","lat":50.8825,"lon":6.842},{"id":"1503","kat":"Störfallbetrieb","info":"Gefahrgutlogistik Stoerfall","stadt":"Wesseling","name":"ALFRED TALKE GmbH – Wesseling","strasse":"Brühler Straße 60 (Geb. G440)","plz":"50389","ort":"Wesseling","tel":"02236-72-1832","web":"www.talke.com","plaetze":"","hinweis":"Chemielogistik-Standort Shell-Park Wesseling","lat":50.8128,"lon":6.9802},{"id":"1504","kat":"Industrieobjekt","info":"Chemie Stoerfall","stadt":"Hürth","name":"Westlake Vinnolit GmbH & Co. KG (Chemiepark Knapsack)","strasse":"Industriestraße 300","plz":"50354","ort":"Hürth-Knapsack","tel":"02233-48-0","web":"www.westlake.com","plaetze":"","hinweis":"PVC-Produktion, Chlor/HCl, Störfallbetrieb","lat":50.855134,"lon":6.847058},{"id":"1505","kat":"Industrieobjekt","info":"Chemie Stoerfall","stadt":"Hürth","name":"CABB GmbH (Chemiepark Knapsack)","strasse":"Industriestraße 300","plz":"50354","ort":"Hürth-Knapsack","tel":"02233-48-0","web":"","plaetze":"","hinweis":"Feinchemie, Chlorchemie, Störfallbetrieb","lat":50.855134,"lon":6.847058},{"id":"1506","kat":"Industrieobjekt","info":"Chemie Stoerfall","stadt":"Hürth","name":"LyondellBasell Polypropylen (Chemiepark Knapsack)","strasse":"Industriestraße 300","plz":"50354","ort":"Hürth-Knapsack","tel":"02233-48-0","web":"www.lyondellbasell.com","plaetze":"","hinweis":"Polypropylen-Produktion, Druckgasflaschen, Störfallbetrieb","lat":50.855134,"lon":6.847058},{"id":"1507","kat":"Industrieobjekt","info":"Chemie Stoerfall","stadt":"Hürth","name":"BASF Agricultural Solutions (Chemiepark Knapsack)","strasse":"Industriestraße 300","plz":"50354","ort":"Hürth-Knapsack","tel":"02233-48-0","web":"www.basf.com","plaetze":"","hinweis":"Pflanzenschutz, Störfallbetrieb","lat":50.855134,"lon":6.847058},{"id":"1508","kat":"Industrieobjekt","info":"Energie Stoerfall","stadt":"Hürth","name":"EEW Energy from Waste (Knapsack)","strasse":"Industriestraße 300","plz":"50354","ort":"Hürth-Knapsack","tel":"02233-48-0","web":"www.eew-energyfromwaste.com","plaetze":"","hinweis":"Müllverbrennung, Dampf+Strom, Störfallbetrieb","lat":50.855134,"lon":6.847058},{"id":"1509","kat":"Industrieobjekt","info":"Energie Stoerfall","stadt":"Hürth","name":"Statkraft Gaskraftwerk Knapsack","strasse":"Industriestraße 300","plz":"50354","ort":"Hürth-Knapsack","tel":"02233-48-0","web":"www.statkraft.de","plaetze":"","hinweis":"Gas-Kombi-Kraftwerk, kritische Infra., Stromerzeugung","lat":50.855134,"lon":6.847058},{"id":"1510","kat":"Störfallbetrieb","info":"Chemie Stoerfall","stadt":"Wesseling","name":"Shell Energy & Chemicals Park – LyondellBasell Anlage","strasse":"Am Rhein 1","plz":"50389","ort":"Wesseling","tel":"02236-770","web":"www.lyondellbasell.com","plaetze":"","hinweis":"Ethylenkracker, Naphtha, Druckgase, Störfallbetrieb","lat":50.8188,"lon":6.9895},{"id":"1511","kat":"Industrieobjekt","info":"Industriepark","stadt":"Pulheim","name":"Industriegebiet Pulheim-Stommeln (Chemie/Logistik)","strasse":"Pulheim-Stommeln","plz":"50259","ort":"Pulheim","tel":"02238-8080","web":"","plaetze":"","hinweis":"Div. Industriebetriebe, TÜV Rheinland-Standort","lat":51.0207,"lon":6.7611},{"id":"1601","kat":"Kritische Infrastruktur","info":"Wasserversorgung KRITIS","stadt":"Bergheim","name":"Erftverband – Verwaltung und Verbandssitz","strasse":"Am Erftverband 6","plz":"50126","ort":"Bergheim","tel":"02271-88-0","web":"www.erftverband.de","plaetze":"","hinweis":"Sondergesetzlicher Wasserverband, 600 MA, 4.216 km² Einzugsgebiet","lat":50.960508,"lon":6.630731},{"id":"1602","kat":"Kritische Infrastruktur","info":"Wasserversorgung KRITIS","stadt":"Erftstadt","name":"Stadtwerke Erftstadt – Wasserwerk","strasse":"Albert-Einstein-Ring 26","plz":"50374","ort":"Erftstadt","tel":"02235-409846","web":"www.stw-erftstadt.de","plaetze":"","hinweis":"Trinkwasserversorgung Erftstadt (Gymnich, Liblar, Lechenich u.a.)","lat":50.79594,"lon":6.783613},{"id":"1603","kat":"Kritische Infrastruktur","info":"Wasserwerk KRITIS","stadt":"Bergheim","name":"Wasserwerk Bergheim (Stadtwerke)","strasse":"Bergheim","plz":"50126","ort":"Bergheim","tel":"02271-6890","web":"","plaetze":"","hinweis":"Trinkwasserversorgung Stadt Bergheim, KRITIS","lat":50.96987,"lon":6.631342},{"id":"1604","kat":"Kritische Infrastruktur","info":"Wasserwerk KRITIS","stadt":"Frechen","name":"Wasserwerk Frechen (Stadtwerke)","strasse":"Frechen","plz":"50226","ort":"Frechen","tel":"02234-5010","web":"","plaetze":"","hinweis":"Trinkwasserversorgung Stadt Frechen, KRITIS","lat":50.93644,"lon":6.777866},{"id":"1605","kat":"Kritische Infrastruktur","info":"Wasserwerk KRITIS","stadt":"Pulheim","name":"RheinEnergie / Stadtwerke Pulheim – Wasserversorgung","strasse":"Pulheim","plz":"50259","ort":"Pulheim","tel":"02238-8080","web":"www.rheinenergie.com","plaetze":"","hinweis":"Trinkwasserversorgung Pulheim, KRITIS","lat":50.997928,"lon":6.797157},{"id":"1701","kat":"Kritische Infrastruktur","info":"Kläranlage KRITIS","stadt":"Bergheim","name":"Erftverband – Kläranlage Bergheim","strasse":"Bergheim (Erft-Niederung)","plz":"50126","ort":"Bergheim","tel":"02271-88-0","web":"www.erftverband.de","plaetze":"","hinweis":"Zentrale Kläranlage REK-Nord, KRITIS","lat":50.966581,"lon":6.601577},{"id":"1702","kat":"Kritische Infrastruktur","info":"Kläranlage KRITIS","stadt":"Kerpen","name":"Erftverband – Kläranlage Kerpen","strasse":"Kerpen (Erft-Niederung)","plz":"50171","ort":"Kerpen","tel":"02271-88-0","web":"www.erftverband.de","plaetze":"","hinweis":"Kläranlage KRITIS","lat":50.860561,"lon":6.665023},{"id":"1703","kat":"Kritische Infrastruktur","info":"Kläranlage KRITIS","stadt":"Erftstadt","name":"Erftverband – Kläranlage Erftstadt-Köttingen (Neubau nach Flut)","strasse":"Erftstadt-Köttingen","plz":"50374","ort":"Erftstadt","tel":"02271-88-0","web":"www.erftverband.de","plaetze":"","hinweis":"Nach Flut 2021 zerstört, Neubau hochwassersicher + energieeffizient, KRITIS","lat":50.818388,"lon":6.814313},{"id":"1704","kat":"Kritische Infrastruktur","info":"Kläranlage KRITIS","stadt":"Wesseling","name":"Erftverband – Kläranlage Wesseling","strasse":"Wesseling","plz":"50389","ort":"Wesseling","tel":"02271-88-0","web":"www.erftverband.de","plaetze":"","hinweis":"Kläranlage REK-Süd, KRITIS","lat":50.813744,"lon":7.010977},{"id":"1705","kat":"Kritische Infrastruktur","info":"Kläranlage KRITIS","stadt":"Pulheim","name":"Erftverband – Kläranlage Pulheim","strasse":"Pulheim","plz":"50259","ort":"Pulheim","tel":"02271-88-0","web":"www.erftverband.de","plaetze":"","hinweis":"Kläranlage KRITIS","lat":50.997928,"lon":6.797157},{"id":"1801","kat":"Kritische Infrastruktur","info":"Hochwasserschutz HRB","stadt":"Kerpen","name":"HRB Mödrath (Boisdorfer See) – Erftverband","strasse":"Kerpen-Mödrath, ehem. Tagebau Frechen","plz":"50171","ort":"Kerpen","tel":"02271-88-0","web":"www.erftverband.de","plaetze":"1,7 Mio m³","hinweis":"Größtes HRB im REK, Rückhaltevolumen 1,7 Mio m³, Staumauer","lat":50.860561,"lon":6.665023},{"id":"1802","kat":"Kritische Infrastruktur","info":"Hochwasserschutz HRB","stadt":"Bergheim","name":"HRB Bergheim-Glesch – Erftverband","strasse":"Bergheim-Glesch","plz":"50129","ort":"Bergheim","tel":"02271-88-0","web":"www.erftverband.de","plaetze":"85.000 m³","hinweis":"Renaturierung + Überschwemmungsgebiet geplant, HRB in Bau","lat":50.963327,"lon":6.608222},{"id":"1803","kat":"Kritische Infrastruktur","info":"Hochwasserschutz HRB","stadt":"Erftstadt","name":"HRB Erftstadt / Erftkanal – Erftverband","strasse":"Erftstadt","plz":"50374","ort":"Erftstadt","tel":"02271-88-0","web":"www.erftverband.de","plaetze":"","hinweis":"HRB Erft-Unterlauf, Schutz Erftstadt nach Flut 2021","lat":50.807276,"lon":6.833012},{"id":"1804","kat":"Kritische Infrastruktur","info":"Hochwasserschutz Wehr","stadt":"REK-weit","name":"23 HRB Erftverband gesamt REK + Umgebung","strasse":"Diverse Standorte","plz":"","ort":"REK","tel":"02271-88-0","web":"www.erftverband.de","plaetze":"7,69 Mio m³","hinweis":"23 HRB mit 7,69 Mio m³ Gesamtvolumen, 5 > 1 Mio m³, HOWIS-Monitoring","lat":51.0,"lon":6.6992},{"id":"1901","kat":"Kritische Infrastruktur","info":"Strom KRITIS","stadt":"Bergheim","name":"RWE Power AG – Kraftwerk Niederaußem","strasse":"Karl-Heinz-Beckurts-Str. 8","plz":"50129","ort":"Bergheim","tel":"02271-65-0","web":"www.rwe.com","plaetze":"3.800 MW","hinweis":"Braunkohlekraftwerk 3.800 MW, Wahrzeichen REK, eigene BtF, KRITIS Strom","lat":50.9811,"lon":6.700789},{"id":"1902","kat":"Kritische Infrastruktur","info":"Strom KRITIS","stadt":"Bergheim","name":"RWE Power AG – Tagebauverwaltung Hambach","strasse":"Tagebau Hambach Verwaltung","plz":"50126","ort":"Bergheim","tel":"02271-65-0","web":"www.rwe.com","plaetze":"","hinweis":"RWE Power Verwaltung, Tagebau + Kohleversorgung Kraftwerk","lat":50.966581,"lon":6.601577},{"id":"1903","kat":"Kritische Infrastruktur","info":"Strom KRITIS","stadt":"Wesseling","name":"AmprionStromtrasse / Umspannwerk Wesseling","strasse":"Wesseling","plz":"50389","ort":"Wesseling","tel":"","web":"www.amprion.net","plaetze":"","hinweis":"Hochspannungs-Umspannwerk, Stromversorgung Region, KRITIS","lat":50.813744,"lon":7.010977},{"id":"1904","kat":"Kritische Infrastruktur","info":"Gas KRITIS","stadt":"Hürth","name":"Gasversorgung Chemiepark Knapsack – Ferngas","strasse":"Hürth-Knapsack","plz":"50354","ort":"Hürth","tel":"02233-48-0","web":"","plaetze":"","hinweis":"Gasleitungen 130km Rohrleitungen im Park, Pipeline-Verbund, KRITIS","lat":50.860021,"lon":6.869342},{"id":"1905","kat":"Kritische Infrastruktur","info":"Strom KRITIS","stadt":"Hürth","name":"Umspannwerk Hürth (RheinEnergie/Westnetz)","strasse":"Hürth","plz":"50354","ort":"Hürth","tel":"0800-97755500","web":"www.westnetz.de","plaetze":"","hinweis":"Hochspannungsumspannwerk, Stromverteilung REK-Süd, KRITIS","lat":50.8619,"lon":6.890721},{"id":"2001","kat":"Kritische Infrastruktur","info":"Telekommunikation KRITIS","stadt":"Bergheim","name":"Leitstelle REK / Digitalfunk TETRA BOS","strasse":"Kerpen (Leitstelle)","plz":"50171","ort":"Kerpen","tel":"02271-83-0","web":"www.rhein-erft-kreis.de","plaetze":"","hinweis":"Integrierte Leitstelle, BOS-Digitalfunk, 24/7, KRITIS","lat":50.860561,"lon":6.665023},{"id":"2002","kat":"Kritische Infrastruktur","info":"Telekommunikation KRITIS","stadt":"Bergheim","name":"Telekommunikationsknoten REK (Westnetz/Telekom)","strasse":"Bergheim","plz":"50126","ort":"Bergheim","tel":"02271-83-0","web":"","plaetze":"","hinweis":"Telekommunikationsinfrastruktur KRITIS","lat":50.96987,"lon":6.631342},{"id":"2101","kat":"Kritische Infrastruktur","info":"Autobahn","stadt":"REK","name":"Autobahn A4 (Köln–Aachen) – Passage REK","strasse":"A4 Passage durch Frechen/Kerpen/Hürth","plz":"","ort":"REK","tel":"","web":"","plaetze":"","hinweis":"Tunnel Frechen, Kreuz Kerpen, 3 Anschlussstellen im REK","lat":50.9175,"lon":6.813},{"id":"2102","kat":"Kritische Infrastruktur","info":"Autobahn","stadt":"REK","name":"Autobahn A1 (Köln–Dortmund) – Passage REK Nord","strasse":"A1 Bergheim/Pulheim","plz":"","ort":"REK","tel":"","web":"","plaetze":"","hinweis":"Autobahnkreuz Pulheim","lat":51.0029,"lon":6.8002},{"id":"2103","kat":"Kritische Infrastruktur","info":"Autobahn","stadt":"REK","name":"Autobahn A61 – Kreuz Kerpen","strasse":"A61 Kreuz Kerpen","plz":"50171","ort":"Kerpen","tel":"","web":"","plaetze":"","hinweis":"A4/A61-Kreuz, Verkehrsknoten","lat":50.88,"lon":6.715},{"id":"2104","kat":"Kritische Infrastruktur","info":"Eisenbahn","stadt":"REK","name":"Bahnlinie Köln–Aachen (SFS) – Passage REK","strasse":"KBS 480 durch Frechen/Kerpen/Bedburg","plz":"","ort":"REK","tel":"","web":"","plaetze":"","hinweis":"Hochgeschwindigkeitsstrecke ICE, Tunnel, Bahnanlagen","lat":50.9175,"lon":6.813},{"id":"2105","kat":"Kritische Infrastruktur","info":"Eisenbahn","stadt":"Kerpen","name":"Leitstelle Kerpen – Bahnbetriebswerk DB Kerpen","strasse":"Kerpen-Horrem","plz":"50169","ort":"Kerpen","tel":"0800-150 7090","web":"www.bahn.de","plaetze":"","hinweis":"DB-Betriebswerk, S-Bahn-Knotenpunkt Kerpen/Horrem","lat":50.914856,"lon":6.708681},{"id":"2201","kat":"Versammlungsstaette","info":"Sportstadion","stadt":"Hürth","name":"Sportpark Hürth (FC Hürth u.a.)","strasse":"Hürth","plz":"50354","ort":"Hürth","tel":"02233-530","web":"","plaetze":"","hinweis":"Sportanlagen, Stadion, Veranstaltungen","lat":50.8619,"lon":6.890721},{"id":"2202","kat":"Versammlungsstaette","info":"Messe","stadt":"Hürth","name":"MediaPark / Produktionszentren Hürth","strasse":"Hürth (Medienstandort)","plz":"50354","ort":"Hürth","tel":"02233-530","web":"","plaetze":"","hinweis":"Filmproduktion, TV-Studios, Medienunternehmen","lat":50.874256,"lon":6.849757},{"id":"2203","kat":"Versammlungsstaette","info":"Museum","stadt":"Brühl","name":"Max-Ernst-Museum Brühl","strasse":"Comesstr. 42","plz":"50321","ort":"Brühl","tel":"02232-5971-244","web":"www.maxernstmuseum.de","plaetze":"","hinweis":"Besuchermagnet, Museum, Großveranstaltungen","lat":50.830238,"lon":6.909426},{"id":"2204","kat":"Versammlungsstaette","info":"Erholungsgebiet","stadt":"Erftstadt","name":"Freizeitbad / Liblarer See","strasse":"Erftstadt-Liblar","plz":"50374","ort":"Erftstadt","tel":"02235-4090","web":"","plaetze":"","hinweis":"Badesee, Tausende Besucher in Spitzenzeiten","lat":50.807276,"lon":6.833012},{"id":"2205","kat":"Versammlungsstaette","info":"Erholungsgebiet","stadt":"Kerpen","name":"Otto-Maigler-See Kerpen","strasse":"Kerpen-Horrem","plz":"50169","ort":"Kerpen","tel":"02273-59-0","web":"","plaetze":"","hinweis":"Badesee, Freizeitgebiet, Tausende Besucher","lat":50.914856,"lon":6.708681},{"id":"2401","kat":"Erftverband","info":"Hauptverwaltung","stadt":"Bergheim","name":"Erftverband Hauptverwaltung Bergheim","strasse":"Am Erftverband 6","plz":"50126","ort":"Bergheim","tel":"02271-88-0","web":"www.erftverband.de","plaetze":"600 MA","hinweis":"Wasserwirtschaft REK + Euskirchen + Rhein-Sieg-Kreis, KRITIS","lat":50.960508,"lon":6.630731},{"id":"1310","kat":"Labor","info":"Industrielabor Chemie Stoerfall","stadt":"Hürth-Kalscheuren","name":"Orion Engineered Carbons – Werk Kalscheuren (Ruß/Carbon Black)","strasse":"Harry-Kloepfer-Straße 1","plz":"50354","ort":"Hürth-Kalscheuren","tel":"02233-964-0","web":"www.orioncarbons.com","plaetze":"","hinweis":"Größtes Carbon-Black-Werk Europas, seit 1895, Störfallbetrieb §16 BImSchG, Rußwolken bei Störfall, Eigenenergieerzeugung, Fernwärme Hürth","lat":50.873574,"lon":6.91853},{"id":"1311","kat":"Labor","info":"GMP Pharmalabor","stadt":"Hürth","name":"Analytiklabor / Pharmastandort Hürth-Knapsack (div. Mieter)","strasse":"Industriestraße 300 (Chemiepark)","plz":"50354","ort":"Hürth-Knapsack","tel":"02233-48-0","web":"www.chemiepark-knapsack.de","plaetze":"","hinweis":"GMP-Analyselabore mehrerer Chemieparkmieter (CABB, BASF, LyondellBasell), 24/7","lat":50.859426,"lon":6.854768},{"id":"1312","kat":"Labor","info":"Forensik Umwelt","stadt":"Bergheim","name":"Erftverband Analyselabor Bergheim (Umwelt/Abwasser)","strasse":"Am Erftverband 6","plz":"50126","ort":"Bergheim","tel":"02271-88-0","web":"www.erftverband.de","plaetze":"","hinweis":"Akkreditiertes Umweltlabor für Gewässer, Abwasser, Trinkwasser, KRITIS","lat":50.960508,"lon":6.630731},{"id":"2501","kat":"Klinik","info":"Reha Psychosomatik Sucht","stadt":"Hürth","name":"salus klinik Hürth – Fachklinik Psychosomatik + Sucht","strasse":"Willy-Brandt-Platz 1","plz":"50354","ort":"Hürth","tel":"02233-8081-0","web":"www.salus-kliniken.de/huerth","plaetze":"320 Betten","hinweis":"Psychosomatik + Sucht, 3 Kliniken auf einem Gelände, inkl. Frauenklinik, Mutter-Kind-Bereich","lat":50.885674,"lon":6.868365},{"id":"2502","kat":"Klinik","info":"Reha Psychosomatik Sucht","stadt":"Hürth","name":"salus klinik Hürth – Fachklinik Sucht","strasse":"Willy-Brandt-Platz 1","plz":"50354","ort":"Hürth","tel":"02233-8081-0","web":"www.salus-kliniken.de/huerth-sucht","plaetze":"","hinweis":"Abhängigkeitserkrankungen, eigenständiger Bereich auf Gelände","lat":50.885674,"lon":6.868365},{"id":"2503","kat":"Klinik","info":"Reha Psychosomatik Sucht","stadt":"Hürth","name":"salus klinik Hürth – Frauenklinik (seit 2017)","strasse":"Willy-Brandt-Platz 1","plz":"50354","ort":"Hürth","tel":"02233-8081-0","web":"www.salus-kliniken.de/huerth","plaetze":"21 Mutter-Kind-Apt.","hinweis":"Fachklinik Frauen mit psych. Erkrankungen, 21 Mutter-Kind-Appartements, Kinderhaus + Grundschule im Haus","lat":50.885674,"lon":6.868365},{"id":"2504","kat":"Klinik","info":"Psychiatrie stationaer","stadt":"Bergheim","name":"LVR-Therapiezentrum Bergheim (TZB) – Fachklinik Psychiatrie","strasse":"Klosterstraße 2a","plz":"50126","ort":"Bergheim","tel":"02271-9848-1310","web":"klinik-dueren.lvr.de","plaetze":"64 Betten + 24 TK","hinweis":"Psychiatrie/Psychosomatik, Tagesklinik 24 Plätze, LVR-Träger, eröffnet 2017, am Maria-Hilf-KH","lat":50.951606,"lon":6.636766},{"id":"2505","kat":"Klinik","info":"Psychiatrie Tagesklinik","stadt":"Bedburg","name":"LVR-Tagesklinik Bedburg","strasse":"Augustinerallee 1","plz":"50181","ort":"Bedburg","tel":"02272-999040","web":"klinik-dueren.lvr.de","plaetze":"","hinweis":"Psychiatrische Tagesklinik LVR-Klinik Düren, Mo-Fr 7:30-16 Uhr","lat":50.998767,"lon":6.577228},{"id":"2506","kat":"Klinik","info":"Psychiatrie Tagesklinik","stadt":"Hürth","name":"Cellitinnen-Marienborn Tagesklinik Psychiatrie Hürth","strasse":"Argeles-Sur-Mer-Straße 1","plz":"50354","ort":"Hürth","tel":"02233-5994-0","web":"www.marienborn-psychiatrie.de","plaetze":"","hinweis":"Psychiatrische Tagesklinik, Cellitinnen-Träger","lat":50.884544,"lon":6.870373},{"id":"2507","kat":"Klinik","info":"Reha Behinderte","stadt":"Bergheim","name":"REHA-Betriebe Erftland – WfbM Bergheim","strasse":"Heisenbergstraße 26-40","plz":"50169","ort":"Kerpen (Adm. Bergheim)","tel":"02271-8590","web":"www.reha-betriebe.de","plaetze":"630 Beschäftigte","hinweis":"Werkstatt für behinderte Menschen, 630 MA, 125 Fachkräfte, größter REK-Standort WfbM","lat":50.870429,"lon":6.750183},{"id":"2508","kat":"Klinik","info":"Reha Behinderte","stadt":"Brühl","name":"REHA-Betriebe Erftland – WfbM Brühl","strasse":"Brühl (Adresse auf Anfrage)","plz":"50321","ort":"Brühl","tel":"02232-7010","web":"www.reha-betriebe.de","plaetze":"250 Beschäftigte","hinweis":"Werkstatt für behinderte Menschen, 250 MA, 55 Fachkräfte","lat":50.820866,"lon":6.886653},{"id":"2601","kat":"Schwimmbad","info":"Freibad","stadt":"Bedburg","name":"Freibad Bedburg","strasse":"Erftstraße 15","plz":"50181","ort":"Bedburg","tel":"02272-4327","web":"","plaetze":"","hinweis":"Schwimmer-, Erlebnis-, Planschbecken, Rutsche, beheizt","lat":50.996722,"lon":6.573579},{"id":"2602","kat":"Schwimmbad","info":"Hallenbad Freizeitbad","stadt":"Bergheim","name":"Fortuna-Hallen-Freizeitbad Oberaußem","strasse":"Oberaußem","plz":"50129","ort":"Bergheim-Oberaußem","tel":"02271-9880","web":"","plaetze":"","hinweis":"Hallen-Freizeitbad, 25m Schwimmerbecken, Sauna, Kurse","lat":50.961829,"lon":6.686618},{"id":"2603","kat":"Schwimmbad","info":"Hallenbad","stadt":"Bergheim","name":"Sportpark-Hallenbad Bergheim Süd-West (Schwimmpool e.V.)","strasse":"Sportparkstraße","plz":"50126","ort":"Bergheim","tel":"02271-63792","web":"","plaetze":"","hinweis":"25x17m Wettkampf-Hallenbad, 6 Startblöcke","lat":50.943651,"lon":6.634699},{"id":"2604","kat":"Schwimmbad","info":"Freibad","stadt":"Bergheim","name":"Oleander-Freibad / Kleinschwimmhalle Bergheim","strasse":"Bergheim","plz":"50126","ort":"Bergheim","tel":"02271-6890","web":"","plaetze":"","hinweis":"Oleander Freibad + Kleinschwimmhalle","lat":50.96987,"lon":6.631342},{"id":"2605","kat":"Schwimmbad","info":"Freibad","stadt":"Brühl","name":"KarlsBad Brühl (Freibad)","strasse":"Kurfürstenstraße 40","plz":"50321","ort":"Brühl","tel":"02232-7970","web":"","plaetze":"","hinweis":"Freibad Brühl, Rutsche, Sprungturm, TÜV-geprüft","lat":50.837066,"lon":6.904632},{"id":"2606","kat":"Schwimmbad","info":"Hallenbad Erlebnisbad","stadt":"Erftstadt","name":"Hallenbad Liblar Erftstadt","strasse":"Erftstadt-Liblar","plz":"50374","ort":"Erftstadt","tel":"02235-4090","web":"","plaetze":"","hinweis":"Hallenbad, Wasserratten-Ziel, auch kalte Jahreszeit","lat":50.807276,"lon":6.833012},{"id":"2607","kat":"Schwimmbad","info":"Freibad","stadt":"Erftstadt","name":"Freibad Kierdorf Erftstadt","strasse":"Erftstadt-Kierdorf","plz":"50374","ort":"Erftstadt","tel":"02235-4090","web":"","plaetze":"","hinweis":"Freibad, Sommersaison","lat":50.839632,"lon":6.78303},{"id":"2608","kat":"Schwimmbad","info":"Hallenbad Erlebnisbad","stadt":"Frechen","name":"fresh-open Erlebnisbad Frechen (Hallenbad)","strasse":"Burgstraße 65","plz":"50226","ort":"Frechen","tel":"02234-5010","web":"","plaetze":"","hinweis":"Erlebnisbad/Hallenbad Frechen","lat":50.903204,"lon":6.806188},{"id":"2609","kat":"Schwimmbad","info":"Freibad","stadt":"Frechen","name":"Terrassenfreibad Frechen","strasse":"Frechen","plz":"50226","ort":"Frechen","tel":"02234-5010","web":"www.stadt-frechen.de","plaetze":"","hinweis":"Terrassenfreibad, Mai-September","lat":50.93644,"lon":6.777866},{"id":"2610","kat":"Schwimmbad","info":"Erlebnisbad Hallenbad","stadt":"Hürth","name":"Familienbad De Bütt Hürth","strasse":"Sudetenstraße 91","plz":"50354","ort":"Hürth","tel":"02233-530","web":"","plaetze":"","hinweis":"Erlebnisbad Hürth, Familienbad","lat":50.883879,"lon":6.865981},{"id":"2611","kat":"Schwimmbad","info":"Hallenbad Freizeitbad","stadt":"Kerpen","name":"Erftlagune Kerpen (Hallenbad + Freizeitbad)","strasse":"Heerstraße 127","plz":"50169","ort":"Kerpen","tel":"02273-59-0","web":"www.erftlagune.de","plaetze":"","hinweis":"Hallenbad + Freizeitbad, auch Freibad im Sommer","lat":50.861081,"lon":6.752028},{"id":"2612","kat":"Schwimmbad","info":"Freibad","stadt":"Kerpen","name":"Freibad Türnich Kerpen","strasse":"Türnich","plz":"50169","ort":"Kerpen","tel":"02273-59-0","web":"www.erftlagune.de","plaetze":"","hinweis":"Freibad Kerpen-Türnich, neue Energiepumpen","lat":50.864197,"lon":6.747158},{"id":"2613","kat":"Schwimmbad","info":"Freibad","stadt":"Pulheim","name":"Freibad Stommeln Pulheim","strasse":"Pulheim-Stommeln","plz":"50259","ort":"Pulheim","tel":"02238-8080","web":"","plaetze":"","hinweis":"Freibad Pulheim, Sprungturm, Rutsche","lat":51.020679,"lon":6.761146},{"id":"2614","kat":"Schwimmbad","info":"Wassersport","stadt":"Pulheim","name":"Wassersportstützpunkt Pulheim (In den Benden)","strasse":"In den Benden","plz":"50259","ort":"Pulheim","tel":"02238-8080","web":"","plaetze":"","hinweis":"Wassersport-Stützpunkt, NRW-Sport","lat":51.014443,"lon":6.750556},{"id":"2615","kat":"Schwimmbad","info":"Freibad","stadt":"Wesseling","name":"Hinweis: Kein eigenes Schwimmbad Wesseling","strasse":"– (nächste: Wesseling nutzt Bäder Brühl/Köln)","plz":"50389","ort":"Wesseling","tel":"02236-7010","web":"","plaetze":"","hinweis":"Kein kommunales Schwimmbad in Wesseling im REK; Bürger nutzen KarlsBad Brühl / Kölner Bäder","lat":50.817148,"lon":6.977059},{"id":"2616","kat":"Schwimmbad","info":"Freibad","stadt":"Elsdorf","name":"Freibad Elsdorf","strasse":"Elsdorf","plz":"50189","ort":"Elsdorf","tel":"02274-9350","web":"","plaetze":"","hinweis":"Kommunales Freibad Elsdorf","lat":50.965335,"lon":6.531971},{"id":"2701","kat":"WfbM","info":"Werkstatt fuer behinderte Menschen","stadt":"Kerpen","name":"Bundschuh-Werkstätten GmbH – Kerpen","strasse":"Heisenbergstraße 26-40","plz":"50169","ort":"Kerpen","tel":"02273-9220","web":"","plaetze":"","hinweis":"WfbM Kerpen, Arbeit + Förderung für Menschen mit Behinderung","lat":50.870429,"lon":6.750183},{"id":"2801","kat":"Sonstiges","info":"Schlachthof Tierverarbeitung","stadt":"Hürth","name":"Schlachthof / Fleischverarbeitung Hürth","strasse":"Hürth","plz":"50354","ort":"Hürth","tel":"02233-530","web":"","plaetze":"","hinweis":"Tierverarbeitung, Gefahren für Rettungskräfte (Ammoniak-Kühlanlagen)","lat":50.8619,"lon":6.890721},{"id":"2802","kat":"Sonstiges","info":"Großmarkt Lager","stadt":"Kerpen","name":"Logistikzentren / Großlager A4-Korridor Kerpen","strasse":"Kerpen-Industriegebiet","plz":"50169","ort":"Kerpen","tel":"02273-59-0","web":"","plaetze":"","hinweis":"Großlogistikzentren entlang A4/A61, erhöhte Gefahrgutdichte (Amazon, div. Logistiker)","lat":50.87156,"lon":6.749787},{"id":"2803","kat":"Sonstiges","info":"Tierklinik","stadt":"Kerpen","name":"Tierärztliche Klinik REK (Großtierklinik)","strasse":"Kerpen / Umgebung","plz":"50171","ort":"Kerpen","tel":"02273-9210","web":"","plaetze":"","hinweis":"Tierärztliche Kliniken REK (einsatztaktisch bei Großtiereinsatz)","lat":50.860561,"lon":6.665023},{"id":"2804","kat":"Sonstiges","info":"Flugplatz","stadt":"Frechen","name":"Landeplatz Frechen-Habbelrath (EDKF)","strasse":"Frechen-Habbelrath","plz":"50226","ort":"Frechen","tel":"02234-5010","web":"","plaetze":"","hinweis":"Kleiner Landeplatz / Segelfluggelände, Rettungshubschrauber-Ausweichmöglichkeit","lat":50.912197,"lon":6.752131}]